UNITID,OPEID,MN_EARN_WNE_P10,MD_EARN_WNE_P10,INSTNM,CITY,STABBR,ZIP,SAT_AVG,ADM_RATE,UGDS,GRADS,UG12MN,G12MN,ICLEVEL,UGDS_MEN,UGDS_WOMEN,COSTT4_A,COSTT4_P,AVGFACSAL,PFTFAC,PCTPELL,GRAD_DEBT_MDN,AGE_ENTRY,FIRST_GEN,PCT_WHITE,PCT_BLACK,PCT_ASIAN,PCT_HISPANIC,SCH_DEG,INSTURL,NPCURL,LATITUDE,LONGITUDE
100654,100200,35500,31000,Alabama A & M University,Normal,AL,35762,957,0.8986,4990,963,5343,1165,1,0.4076,0.5924,22489,NULL,7101,0.7411,0.7067,33375,20.28374137,0.365828092,46.84000015,47.97999954,1.480000019,3.789999962,3,www.aamu.edu/,www.aamu.edu/admissions-aid/tuition-fees/net-price-calculator.html,34.783368,-86.568502
100663,105200,48400,41200,University of Alabama at Birmingham,Birmingham,AL,35294-0110,1220,0.9211,13186,8087,14445,10498,1,0.393,0.607,24347,NULL,10717,0.7766,0.3632,22500,23.60797466,0.341223671,69.01999664,27.76000023,1.100000024,2.029999971,3,https://www.uab.edu,https://uab.studentaidcalculator.com/survey.aspx,33.505697,-86.799345
100690,2503400,47600,39600,Amridge University,Montgomery,AL,36117-3553,NULL,NULL,351,404,440,527,1,0.3191,0.6809,17680,NULL,4292,1,0.7673,27334,33.6722973,0.5125,70.87999725,22.53000069,1.289999962,6.940000057,3,www.amridgeuniversity.edu,www2.amridgeuniversity.edu:9091/,32.362609,-86.17401
100706,105500,52000,46700,University of Alabama in Huntsville,Huntsville,AL,35899,1314,0.8087,7458,2065,8145,2443,1,0.5796,0.4204,23441,NULL,9442,0.6544,0.2698,21607,22.72791963,0.310132159,76.37999725,18.97999954,1.419999957,2.549999952,3,www.uah.edu,finaid.uah.edu/,34.724557,-86.640449
100724,100500,30600,27700,Alabama State University,Montgomery,AL,36104-0271,972,0.9774,3903,510,4732,642,1,0.371,0.629,21476,NULL,7754,0.5826,0.7448,32000,20.13099042,0.343434343,42.68999863,52.31999969,1.409999967,4.090000153,3,www.alasu.edu,www.alasu.edu/cost-aid/tuition-costs/net-price-calculator,32.364317,-86.295677
100751,105100,51600,44500,The University of Alabama,Tuscaloosa,AL,35487-0100,1252,0.5906,32177,5362,36237,6331,1,0.4443,0.5557,29424,NULL,10225,0.7454,0.1802,23250,21.1377014,0.225712689,75.34999847,21.05999947,1.200000048,2.410000086,3,www.ua.edu/,financialaid.ua.edu/net-price-calculator/,33.211875,-87.545978
100760,100700,32400,27700,Central Alabama Community College,Alexander City,AL,35010,NULL,NULL,1211,NULL,2417,NULL,2,0.4154,0.5846,8824,NULL,6291,0.3966,0.4381,12500,23.07102804,0.549676026,71.51000214,26.89999962,0.219999999,1.00999999,2,www.cacc.edu,https://www.cacc.edu/net-price-calculator/,32.92478,-85.945266
100812,100800,42400,38700,Athens State University,Athens,AL,35611,NULL,NULL,2732,159,3947,165,1,0.3086,0.6914,NULL,NULL,8538,0.4601,0.4223,19500,30.38476563,0.477496484,83.88999939,12.26000023,0.649999976,2.400000095,3,www.athens.edu,www.athens.edu/financial-aid/net-price-calculator/,34.806793,-86.964698
100830,831000,38000,33300,Auburn University at Montgomery,Montgomery,AL,36117-3596,1084,0.9281,4529,579,5246,787,1,0.348,0.652,18291,NULL,7678,0.9655,0.4584,24826,22.19980411,0.38189609,59.97000122,37.20999908,0.910000026,1.620000005,3,www.aum.edu,www.aum.edu/current-students/financial-information/net-price-calculator,32.36736,-86.177544
100858,100900,56300,48800,Auburn University,Auburn,AL,36849,1289,0.7543,24147,5812,25195,6650,1,0.5115,0.4885,31282,NULL,10428,0.8553,0.1537,21281,20.51679587,0.172647119,75.90000153,19.79999924,1.649999976,2.890000105,3,www.auburn.edu,https://www.auburn.edu/admissions/costcalc/freshman.html,32.599378,-85.488258
100937,101200,53100,46700,Birmingham-Southern College,Birmingham,AL,35254,1232,0.5666,1265,NULL,1316,NULL,1,0.4791,0.5209,52176,NULL,7688,0.6667,0.2214,25773,19.64479638,0.172494173,78.90000153,17.40999985,1.389999986,2.460000038,3,www.bsc.edu/,www.bsc.edu/fp/np-calculator.cfm,33.513774,-86.850552
101028,1218200,31300,28900,Chattahoochee Valley Community College,Phenix City,AL,36869,NULL,NULL,1446,NULL,2020,NULL,2,0.3921,0.6079,8750,NULL,6113,0.3679,0.5463,11931,24.81025641,0.430267062,57.52999878,38.68000031,0.850000024,2.859999895,2,www.cv.edu,www.cv.edu/about/consumer-information/,32.42391,-85.031485
101116,1303906,40200,33400,South University-Montgomery,Montgomery,AL,36116,NULL,NULL,321,69,561,125,1,0.2305,0.7695,29309,NULL,5304,0.1467,0.645,25166,30.00184319,0.472288337,65.22000122,28.55999947,1.74000001,6.610000134,3,"www.southuniversity.edu/montgomery#location=Montgomery,%20AL",www.southuniversity.edu/montgomery/net-price-calculator,32.342684,-86.216488
101143,101500,42700,31800,Enterprise State Community College,Enterprise,AL,36330-1300,NULL,NULL,1269,NULL,2461,NULL,2,0.5059,0.4941,9262,NULL,6335,0.4505,0.4207,8158,23.94881517,0.421891605,74.08000183,21.04999924,1.200000048,3.25999999,2,www.escc.edu,https://www.escc.edu/netprice/npcalc.htm,31.297496,-85.836956
101161,106000,33900,29100,Coastal Alabama Community College,Bay Minette,AL,36507-2698,NULL,NULL,5494,NULL,8415,NULL,2,0.3973,0.6027,12008,NULL,6343,0.6087,0.3696,11000,23.5010648,0.43511965,76.16999817,20.29999924,0.769999981,1.559999943,2,www.coastalalabama.edu,www.coastalalabama.edu/about/consumer_information/net_price_calculator/,30.851343,-87.778193
101189,100300,40700,35400,Faulkner University,Montgomery,AL,36109-3390,1069,0.5227,2079,750,3250,886,1,0.4045,0.5955,33944,NULL,5743,0.4534,0.4888,24363,28.26047565,0.430031949,64.87999725,31.88999939,1.049999952,1.809999943,3,www.faulkner.edu,www.faulkner.edu/net-price-calculator/,32.384181,-86.21641
101240,101700,30200,26700,Gadsden State Community College,Gadsden,AL,35903,NULL,NULL,4147,NULL,6790,NULL,2,0.3815,0.6185,10098,NULL,6433,0.468,0.4943,PrivacySuppressed,23.64507772,0.514954486,80.38999939,16.82999992,0.449999988,2.170000076,1,www.gadsdenstate.edu,www.gadsdenstate.edu/admissions-aid/net-price-calculator.cms,33.994001,-85.991438
101277,4187200,NULL,NULL,New Beginning College of Cosmetology,Albertville,AL,35951,NULL,NULL,83,NULL,137,NULL,3,0.012,0.988,NULL,14301,NULL,NULL,0.7372,7000,23.46017699,0.5,NULL,NULL,NULL,NULL,1,www.nbccosmetology.com,nbccosmetology.com/wp-content/themes/nbc/nbc_zonemap/,34.27871,-86.196931
101286,101800,29800,24700,George C Wallace Community College-Dothan,Dothan,AL,36303-9234,NULL,NULL,3746,NULL,6237,NULL,2,0.3251,0.6749,9564,NULL,5991,0.5844,0.4934,PrivacySuppressed,23.86608376,0.485153765,69.33000183,27.76000023,0.579999983,1.919999957,2,www.wallace.edu,www.wallace.edu/net_price_calculator.aspx,31.315274,-85.465836
101295,787100,34800,32200,George C Wallace State Community College-Hanceville,Hanceville,AL,35077-2000,NULL,NULL,4569,NULL,7300,NULL,2,0.3489,0.6511,10252,NULL,5878,0.3839,0.4844,11000,23.44760433,0.498813157,90.56999969,6.619999886,0.319999993,2.549999952,2,www.wallacestate.edu,www.wallacestate.edu/Financial-Aid/Net-Price-Calculator,34.072439,-86.781935
101301,569900,27300,23300,George C Wallace State Community College-Selma,Selma,AL,36703-2808,NULL,NULL,1104,NULL,2486,NULL,2,0.3451,0.6549,13788,NULL,5016,0.541,0.6689,PrivacySuppressed,22.87099567,0.512588117,43.15000153,55.31999969,0.330000013,1.110000014,2,www.wccs.edu,img.wccs.edu/files/finaid/NetPriceCalculator%20(6)/npcalc.htm,32.445917,-87.013294
101365,962107,41600,37800,Herzing University-Birmingham,Birmingham,AL,35209,NULL,0.95,544,20,1019,26,1,0.2132,0.7868,26128,NULL,5988,0.5556,0.637,22730,31.28994083,0.520903265,50.38000107,47.15999985,0.709999979,1.679999948,2,https://www.herzing.edu/,https://www.herzing.edu/tuition-financial-aid/net-price-calculator,33.468466,-86.832465
101435,101900,43600,39900,Huntingdon College,Montgomery,AL,36106-2148,1100,0.5841,1078,NULL,1249,NULL,1,0.5056,0.4944,35685,NULL,6810,0.5714,0.441,26399,23.01775148,0.3456,73.19999695,23.67000008,0.930000007,1.909999967,3,www.huntingdon.edu,hawk.huntingdon.edu/oiac/netpricecalculator/index.html,32.351034,-86.284366
101453,2199700,PrivacySuppressed,PrivacySuppressed,Heritage Christian University,Florence,AL,35630-9977,NULL,NULL,49,27,66,39,1,0.9796,0.0204,NULL,NULL,4681,1,0.5517,PrivacySuppressed,28.72,PrivacySuppressed,80.48000336,15.03999996,0.810000002,4.360000134,3,www.hcu.edu,www.hcu.edu/netpricecalculator/,34.856153,-87.663051
101462,526000,27600,23800,J. F. Drake State Community and Technical College,Huntsville,AL,35811,NULL,NULL,678,NULL,1088,NULL,2,0.4528,0.5472,11123,NULL,6096,0.4462,0.613,PrivacySuppressed,27.25490196,0.589965398,61.99000168,33.29000092,1.299999952,2.180000067,1,https://www.drakestate.edu,https://www.drakestate.edu/Content/Uploads/Drake%20State%20Community%20College/files/Admissions/net%20price%20calculator.html,34.771858,-86.572885
101471,3002500,NULL,NULL,J F Ingram State Technical College,Deatsville,AL,36022,NULL,NULL,443,NULL,833,NULL,2,0.7359,0.2641,5580,NULL,5597,0.9825,0.2205,NULL,36.40366973,0.491803279,NULL,NULL,NULL,NULL,NULL,www.istc.edu,istc.edu/NetPrice/,32.582312,-86.392369
101480,102000,38100,35800,Jacksonville State University,Jacksonville,AL,36265,1135,0.543,6394,1158,8735,1444,1,0.421,0.579,20050,NULL,7122,0.675,0.3882,23000,22.62058319,0.36377025,76.95999908,19.70000076,0.670000017,2.660000086,3,www.jsu.edu/,www.jsu.edu/finaid/,33.822938,-85.765321
101505,102200,33800,30600,Jefferson State Community College,Birmingham,AL,35215-3098,NULL,NULL,6937,NULL,13608,NULL,2,0.3862,0.6138,13284,NULL,6676,0.3162,0.2922,10000,24.41823588,0.450290778,70.63999939,26.69000053,0.800000012,1.809999943,2,www.jeffersonstate.edu/,www.jeffersonstate.edu/financial-aid/net-price-calculator/,33.652535,-86.707233
101514,101300,32200,28000,John C Calhoun State Community College,Tanner,AL,35671,NULL,NULL,8270,NULL,15261,NULL,2,0.4582,0.5418,9848,NULL,6559,0.3197,0.323,11250,23.85665216,0.455343703,75.84999847,19.37000084,1.149999976,2.549999952,2,https://calhoun.edu,https://calhoun.edu/student-services/financial-aid/net-price-calculator/,34.645844,-86.949674
101541,102300,29300,26100,Judson College,Marion,AL,36756,1054,0.482,259,NULL,397,NULL,1,0.0077,0.9923,31735,NULL,6076,0.3678,0.5302,26000,28.40648379,0.413793103,72.30000305,24.63999939,0.569999993,2.700000048,3,www.judson.edu,www.judson.edu/net-price-calculator/,32.629253,-87.315206
101569,105900,26600,23400,Lawson State Community College,Birmingham,AL,35221-1717,NULL,NULL,2959,NULL,4736,NULL,2,0.4018,0.5982,13735,NULL,6337,0.4107,0.6804,PrivacySuppressed,23.38402889,0.474723158,33.52000046,64.48999786,0.479999989,1.379999995,1,www.lawsonstate.edu,www.lawsonstate.edu/disclosure_and_consumer_information/general_institutional_information/net_price_calculator.aspx,33.450814,-86.888844
101587,102400,40400,37400,University of West Alabama,Livingston,AL,35470,1059,0.3966,2152,3046,2516,4218,1,0.4173,0.5827,20692,NULL,6461,0.4906,0.549,26299,22.25948276,0.403210576,55.49000168,42.47999954,0.400000006,1.710000038,3,www.uwa.edu,secure.uwa.edu/calculator/,32.588132,-88.186329
101602,898800,32000,26500,Lurleen B Wallace Community College,Andalusia,AL,36420-1418,NULL,NULL,1267,NULL,2392,NULL,2,0.3631,0.6369,14136,NULL,5945,0.6463,0.5052,PrivacySuppressed,22.77819199,0.520342612,74.44999695,23.57999992,0.289999992,1.179999948,2,https://www.lbwcc.edu,https://www.lbwcc.edu/financial-aid/net-price-calculator,31.322947,-86.452262
101648,102600,49800,42700,Marion Military Institute,Marion,AL,36756-3207,1155,0.5646,392,NULL,459,NULL,2,0.7602,0.2398,18568,NULL,6302,0.88,0.4193,11750,19.67021277,0.233802817,72.26999664,21.42000008,1.620000005,7.429999828,2,www.marionmilitary.edu,marionmilitary.edu/calculator/,32.623734,-87.322041
101675,102800,29500,26500,Miles College,Fairfield,AL,35064-2621,NULL,NULL,1546,NULL,2089,NULL,1,0.4754,0.5246,22828,NULL,4615,0.7094,0.8636,30444,21.32274011,0.416458853,35.88000107,60.72000122,0.939999998,2.819999933,3,www.miles.edu,https://miles.studentaidcalculator.com/survey.aspx,33.482442,-86.908751
101693,102900,38700,35200,University of Mobile,Mobile,AL,36613-2842,1094,0.4704,1294,209,1652,197,1,0.3601,0.6399,35463,NULL,4863,1,0.431,27000,23.91798942,0.324285714,71.04000092,25.10000038,1.029999971,2.319999933,3,www.umobile.edu,umobile.edu/financial-aid/cost-calculator/,30.793247,-88.128934
101709,100400,36100,34200,University of Montevallo,Montevallo,AL,35115-6000,1170,0.4848,2251,331,2529,442,1,0.3319,0.6681,24411,NULL,7710,0.6667,0.3986,23500,21.02364532,0.325237592,77.80000305,19.29999924,0.75999999,2.079999924,3,www.montevallo.edu,https://www.montevallo.edu/NetPriceCalculator/,33.10625,-86.865099
101736,569700,30800,25600,Northwest-Shoals Community College,Muscle Shoals,AL,35661,NULL,NULL,2590,NULL,4741,NULL,2,0.3799,0.6201,12255,NULL,4650,0.4845,0.4145,9750,23.10276297,0.514111788,85.79000092,11.15999985,0.280000001,2.230000019,2,https://www.nwscc.edu,www.nwscc.edu/about-nw-scc/college-departments/student-services/financial-aid/future-students-financial-aid-calculator,34.739788,-87.678089
101879,101600,42800,37800,University of North Alabama,Florence,AL,35632-0001,1134,0.6434,5741,1335,7077,1572,1,0.3982,0.6018,18712,NULL,7898,1,0.3983,23000,21.4253096,0.36326024,83.76000214,13.22000027,0.550000012,2.049999952,3,www.una.edu,studentnpc.collegeboard.org/,34.806738,-87.681361
101897,103100,31700,27900,Northeast Alabama Community College,Rainsville,AL,35986,NULL,NULL,1982,NULL,3767,NULL,2,0.3724,0.6276,8840,NULL,6335,0.3333,0.4682,4815,22.9963477,0.58277592,92.62999725,2.569999933,0.219999999,2.869999886,1,https://www.nacc.edu,https://www.nacc.edu/Content/Uploads/nacc.edu/files/Financial%20Aid/net-price-calc/npcalc.htm,34.545471,-85.911664
101912,103300,37400,29700,Oakwood University,Huntsville,AL,35896,999,0.6589,1569,55,1778,76,1,0.427,0.573,36361,NULL,4970,0.7386,0.5024,30676,21.73015873,0.17623498,54.40000153,34.90999985,3.170000076,10.01000023,3,https://www2.oakwood.edu,https://oakwood.studentaidcalculator.com,34.756344,-86.652705
101994,569200,26800,22000,Reid State Technical College,Evergreen,AL,36401,NULL,NULL,261,NULL,565,NULL,2,0.3716,0.6284,8958,NULL,6351,0.5313,0.5204,PrivacySuppressed,25.61852861,0.590322581,61.31000137,36.54000092,0.300000012,0.930000007,1,www.rstc.edu,images.pcmac.org/Uploads/ReidStateTech/ReidStateTech/Divisions/DocumentsCategories/Documents/index_%7BSIS703AD5AB07EA%7D.html,31.460265,-86.964797
102030,103000,28300,22800,Bishop State Community College,Mobile,AL,36603-5898,NULL,NULL,2440,NULL,4748,NULL,2,0.4057,0.5943,10155,NULL,6296,0.5379,0.5435,PrivacySuppressed,24.32590412,0.485397785,50.06999969,46.38000107,1.070000052,1.25,1,www.bishop.edu,https://www.bishop.edu/calculator/index.htm,30.693972,-88.056982
102049,103600,59800,49900,Samford University,Birmingham,AL,35229-2240,1228,0.8208,3524,2084,3511,2483,1,0.3329,0.6671,46474,NULL,8888,0.9848,0.1227,20000,21.15186916,0.138055222,80.91000366,14.69999981,1.690000057,3.25,3,www.samford.edu,https://samford.studentaidcalculator.com/survey.aspx,33.464128,-86.791799
102058,4067300,PrivacySuppressed,PrivacySuppressed,Selma University,Selma,AL,36701,NULL,NULL,304,13,348,18,1,0.4342,0.5658,15822,NULL,2957,1,0.9646,34300,27.30508475,0.619433198,NULL,NULL,NULL,NULL,3,selmauniversity.edu,selmauniversity.edu/NetPriceCalculator/npcalc.htm,32.420387,-87.032392
102067,569100,31100,27100,Shelton State Community College,Tuscaloosa,AL,35405-8522,NULL,NULL,3829,NULL,7253,NULL,2,0.4395,0.5605,12070,NULL,4936,0.4429,0.4658,PrivacySuppressed,22.36853089,0.476304452,60.90999985,36.84999847,0.629999995,1.350000024,2,www.sheltonstate.edu,apps.sheltonstate.edu/netpricecalculator/npcalc.htm,33.120531,-87.56148
102076,103800,30700,27800,Snead State Community College,Boaz,AL,35957-0734,NULL,NULL,1872,NULL,3611,NULL,2,0.3857,0.6143,11073,NULL,7648,0.2657,0.486,8000,23.65647365,0.53262519,90.76000214,4.289999962,0.25999999,5.590000153,2,www.snead.edu,www.snead.edu/financial_aid/net_price_calculator.aspx,34.201495,-86.169897
102094,105700,46800,37800,University of South Alabama,Mobile,AL,36688-0002,1186,0.7931,10035,4541,12062,5470,1,0.4098,0.5902,19835,NULL,7239,0.6146,0.3922,25000,21.94726688,0.334257975,71.43000031,24.68000031,1.460000038,1.700000048,3,www.southalabama.edu,www.southalabama.edu/departments/finaid/netpricecalculator/,30.696033,-88.178711
102234,104100,51300,45100,Spring Hill College,Mobile,AL,36608-1791,1130,0.6577,1252,125,1495,157,1,0.3866,0.6134,51969,NULL,6672,0.6667,0.342,27000,19.90214067,0.251633987,72.66000366,22.54000092,1.75999999,4.75,3,www.shc.edu,https://shc.studentaidcalculator.com/survey.aspx,30.694751,-88.138199
102270,104400,33700,28200,Stillman College,Tuscaloosa,AL,35401,NULL,0.3859,689,NULL,854,NULL,1,0.4601,0.5399,21314,NULL,5094,0.6949,0.8316,32500,21.02772964,0.410505837,45.75,49.04999924,1.440000057,4.440000057,3,https://stillman.edu,https://stillman.edu/admissions/cost-of-attendance/,33.200006,-87.585278
102298,104600,23900,21900,Talladega College,Talladega,AL,35160,NULL,NULL,1208,4,1018,NULL,1,0.5058,0.4942,22514,NULL,5861,0.5789,0.8951,31990,21.15163934,0.398058252,43.09000015,52.13999939,1.070000052,4.710000038,3,www.talladega.edu,www.talladega.edu/netcalc/npcalc.htm,33.433472,-86.112704
102313,573400,28000,23100,H Councill Trenholm State Community College,Montgomery,AL,36108-3199,NULL,NULL,1567,NULL,2572,NULL,2,0.4461,0.5539,12383,NULL,5384,0.4928,0.5122,PrivacySuppressed,24.24368049,0.430439952,44.11999893,53.68000031,0.639999986,1.200000048,1,www.trenholmstate.edu,www.trenholmstate.edu/net-price-calculator/,32.350109,-86.343057
102368,104700,41100,37000,Troy University,Troy,AL,36082-0001,1082,0.8767,13147,3529,16868,4941,1,0.3837,0.6163,19180,NULL,6639,0.533,0.4015,25030,25.74979691,0.389845712,62.02000046,34,1.070000052,2.819999933,3,www.troy.edu,www.troy.edu/net-price-calculator/index-030119.html,31.800672,-85.957094
102377,105000,42200,35500,Tuskegee University,Tuskegee,AL,36088-1920,1119,0.5182,2529,497,2834,513,1,0.3638,0.6362,39383,NULL,4810,1,0.5256,29090,19.72319392,0.230643847,42.84999847,47.15999985,2.849999905,8.989999771,3,www.tuskegee.edu,www.tuskegee.edu,32.4309,-85.708492
102395,2170600,PrivacySuppressed,PrivacySuppressed,United States Sports Academy,Daphne,AL,36526-7055,NULL,NULL,266,241,213,353,1,0.7932,0.2068,NULL,NULL,6136,0.2,0.534,24662,31.90140845,PrivacySuppressed,73.29000092,16.70999908,3.180000067,9.050000191,3,www.ussa.edu,https://ussa.edu/admissions/consumer-information/net-price-calculator/,30.639329,-87.91163
102429,573300,31300,28100,Bevill State Community College,Jasper,AL,35501,NULL,NULL,2825,NULL,5537,NULL,2,0.3865,0.6135,13681,NULL,6682,0.3234,0.4372,PrivacySuppressed,23.36818632,0.530808366,82.73999786,15.53999996,0.25,1.120000005,2,www.bscc.edu,www.bscc.edu/Content/Uploads/bscc.edu/files/BSCCNetPriceCalculator.html,33.836929,-87.266406
102553,1146200,51200,45400,University of Alaska Anchorage,Anchorage,AK,99508,NULL,0.8115,10482,759,22973,1171,1,0.419,0.581,19942,NULL,9128,0.484,0.2255,20500,25.10750308,0.389193875,73.66000366,4.179999828,4.260000229,5.090000153,3,www.uaa.alaska.edu,www.uaa.alaska.edu/financialaid/customcf/npcalc.htm,61.190163,-149.82619
102580,884300,NULL,NULL,Alaska Bible College,Palmer,AK,99645,NULL,NULL,37,NULL,44,NULL,1,0.6216,0.3784,24759,NULL,3500,NULL,0.6129,PrivacySuppressed,24.6,PrivacySuppressed,NULL,NULL,NULL,NULL,3,www.akbible.edu/,www.akbible.edu/admissions/tuition-aid/net-price-calculator/,61.598553,-149.111972
102614,106300,45100,38700,University of Alaska Fairbanks,Fairbanks,AK,99775,1128,0.7611,4657,975,11417,1321,1,0.435,0.565,18510,NULL,9584,0.6066,0.2202,19500,25.45030882,0.398832685,69.34999847,4.679999828,2.49000001,4.679999828,3,www.uaf.edu,uaf.edu/finaid/costs/net-price-calculator.php,64.85756,-147.823146
102632,106500,39500,36000,University of Alaska Southeast,Juneau,AK,99801-8697,NULL,0.6333,1216,256,3622,443,1,0.3536,0.6464,16853,NULL,8192,0.6092,0.1767,22438,26.9668616,0.395143488,73.93000031,1.350000024,3.589999914,4.619999886,3,www.uas.alaska.edu,www.uas.alaska.edu/financial_aid/costs/npcalc.htm,58.384846,-134.638255
102669,106100,45300,40200,Alaska Pacific University,Anchorage,AK,99508,NULL,0.8425,283,201,340,252,1,0.3286,0.6714,34990,NULL,5467,0.5692,0.3492,21677,25.58219178,PrivacySuppressed,73.12999725,4.449999809,4.110000134,6.889999866,3,www.alaskapacific.edu,https://npc.collegeboard.org/student/app/alaskapacific,61.190968,-149.804168
102711,3160300,45600,35300,Alaska Vocational Technical Center,Seward,AK,99664-0889,NULL,NULL,855,NULL,1895,NULL,3,0.8386,0.1614,NULL,13924,NULL,NULL,0.0433,PrivacySuppressed,26.16853933,0.44137931,54.95000076,1.700000048,2.269999981,2.680000067,1,www.avtec.edu/,www.avtec.edu/book-page/net-price-calculator,60.110626,-149.444487
102845,2576900,46400,39800,Charter College,Vancouver,WA,98683-7575,NULL,1,2853,NULL,4415,7,1,0.2461,0.7539,35613,NULL,4711,0.3162,0.6195,14171,28.03274712,0.554040144,71.16999817,5.860000134,5.400000095,5.849999905,1,https://www.chartercollege.edu,https://chartercollege.studentaidcalculator.com/survey.aspx,45.617798,-122.494766
103501,2541000,32000,31200,Alaska Career College,Anchorage,AK,99507-1033,NULL,NULL,415,NULL,586,NULL,2,0.1398,0.8602,NULL,21369,4068,0.2308,0.7406,9076,27.03846154,0.476772616,68.23000336,5.820000172,5.150000095,5.610000134,1,www.alaskacareercollege.edu,www.alaskacareercollege.edu/tuition-calculator,61.181443,-149.856954
103741,966403,24500,20300,Empire Beauty School-Tucson,Tucson,AZ,85716,NULL,NULL,102,NULL,178,NULL,3,0.1275,0.8725,NULL,19366,NULL,NULL,0.573,12410,25.78489245,0.569871795,73.77999878,3.200000048,1.889999986,32.81999969,1,www.empire.edu,www.empire.edu/net-price-calculator,32.235657,-110.927187
103893,2100600,27200,25400,Carrington College-Phoenix North,Phoenix,AZ,85051-4063,NULL,0.8951,475,NULL,963,NULL,2,0.1137,0.8863,NULL,24471,4069,0.6429,0.2056,9399,26.39643653,0.554835072,68.87000275,3.390000105,1.850000024,32.29999924,1,https://carrington.edu/,https://carrington.edu/financial-aid/how-much-will-it-cost/,33.561689,-112.116105
103909,2100611,27200,25400,Carrington College-Mesa,Mesa,AZ,85210,NULL,NULL,541,NULL,883,NULL,2,0.1423,0.8577,NULL,25115,6037,0.325,0.2503,9399,26.39643653,0.554835072,NULL,NULL,NULL,NULL,1,https://carrington.edu/,https://carrington.edu/financial-aid/how-much-will-it-cost/,33.39248,-111.853218
103927,2100607,27200,25400,Carrington College-Tucson,Tucson,AZ,85745,NULL,0.8736,227,NULL,497,NULL,2,0.1586,0.8414,NULL,22025,4931,0.5385,0.1891,9399,26.39643653,0.554835072,NULL,NULL,NULL,NULL,1,https://carrington.edu/,https://carrington.edu/financial-aid/how-much-will-it-cost/,32.224391,-110.983056
103945,3120300,26400,23900,CollegeAmerica-Flagstaff,Flagstaff,AZ,86001,NULL,NULL,62,NULL,117,NULL,1,0.129,0.871,32164,NULL,7223,NULL,0.8205,24625,27.92113565,0.584527221,44.08000183,1.919999957,0.970000029,14.60999966,2,www.collegeamerica.edu,https://www.collegeamerica.edu/net-price-calculator,35.194495,-111.657673
103954,886400,18800,15300,Arizona Academy of Beauty-East,Tucson,AZ,85712,NULL,NULL,57,NULL,97,NULL,3,0.0702,0.9298,NULL,18306,NULL,NULL,0.7835,4733,28.58035714,0.505376344,71.54000092,3.99000001,1.840000033,35.88999939,1,www.arizonaacademy.com,www.arizonaacademy.com,32.237253,-110.872305
103963,2306807,37800,35300,Platt College-Arizona Automotive Institute Arizona,Glendale,AZ,85301-3579,NULL,NULL,692,NULL,1192,NULL,3,0.9118,0.0882,NULL,34346,NULL,NULL,0.6401,13000,28.2341119,0.586231884,63.13999939,4.519999981,2.569999933,35.18000031,1,www.aai.edu,www.aai.edu/NetPriceCalculatorAAI/npcalc.htm,33.537249,-112.157344
104090,2218800,23700,21900,Brookline College-Phoenix,Phoenix,AZ,85021,NULL,NULL,1230,16,1325,99,1,0.1715,0.8285,NULL,34841,6204,0.32,0.6924,9500,29.24475777,0.559032717,65.58999634,4.059999943,1.669999957,40.72999954,1,www.brooklinecollege.edu,brooklinecollege.studentaidcalculator.com/survey.aspx,33.566102,-112.112473
104151,108100,55500,47700,Arizona State University-Tempe,Tempe,AZ,85287,1240,0.8478,42529,8741,45657,10024,1,0.559,0.441,25621,NULL,11451,0.7766,0.3026,20278,24.7478311,0.381317921,78.76000214,3.49000001,2.900000095,19.20000076,3,www.asu.edu/,https://students.asu.edu/financialaid/net-price,33.417721,-111.934383
104160,107100,32000,27700,Arizona Western College,Yuma,AZ,85365-8834,NULL,NULL,6673,NULL,11492,NULL,2,0.4268,0.5732,15407,NULL,6333,0.3079,0.4516,5500,23.21819527,0.610764687,62.84000015,2.75,1.080000043,61.04999924,1,www.azwestern.edu,https://schedule.azwestern.edu/npcalc/index.html,32.689306,-114.495968
104179,108300,56000,47300,University of Arizona,Tucson,AZ,85721-0066,1198,0.8442,33509,9944,37278,11040,1,0.4736,0.5264,26712,NULL,11147,0.7625,0.2896,20171,21.3087377,0.314072957,77.51000214,3.349999905,3.150000095,22.52000046,3,https://www.arizona.edu,https://arizona.studentaidcalculator.com/survey.aspx,32.232672,-110.950815
104188,2491500,32600,30200,Southwest University of Visual Arts-Tucson,Tucson,AZ,85716,NULL,NULL,124,1,127,5,1,0.5242,0.4758,35552,NULL,5226,1,0.7295,43000,23.59405941,0.4,76.16999817,3.099999905,2.109999895,29.21999931,3,www.suva.edu,www.suva.edu/NetPriceCalculator/,32.252879,-110.927265
104346,728300,31500,26500,Central Arizona College,Coolidge,AZ,85128-9030,NULL,NULL,4976,NULL,8086,NULL,2,0.371,0.629,10680,NULL,6498,1,0.408,9169,25.70838926,0.498192045,66.98999786,3.269999981,0.980000019,32.70999908,1,www.centralaz.edu,doc.centralaz.edu/NetPriceCalculator/npcalc.htm,32.957092,-111.652501
104391,2280500,22600,16100,Charles of Italy Beauty College,Lake Havasu City,AZ,86403,NULL,NULL,43,NULL,75,NULL,3,0.0698,0.9302,NULL,13737,NULL,NULL,0.52,7389,28.34210526,0.492307692,89.81999969,0.620000005,0.879999995,11.01000023,1,www.charlesofitaly.edu,www.charlesofitaly.edu,34.477485,-114.332686
104425,107200,34300,28500,Cochise County Community College District,Sierra Vista,AZ,85635-2317,NULL,NULL,3404,NULL,11087,NULL,2,0.4509,0.5491,11589,NULL,6550,0.3355,0.367,8239,24.1831972,0.486238532,74.30999756,4.940000057,1.720000029,37.97000122,2,https://www.cochise.edu,https://www.cochise.edu/netprice/npcalc.htm,31.564597,-110.246946
104434,1054207,22000,18500,Empire Beauty School-Flagstaff,Flagstaff,AZ,86004,NULL,NULL,37,NULL,62,NULL,3,0,1,NULL,19017,NULL,NULL,0.5484,11746,25.59180918,0.501391208,81.44000244,2.099999905,1.710000038,16.72999954,1,www.empire.edu,www.empire.edu/net-price-calculator,35.197151,-111.625936
104443,1054208,22000,18500,Empire Beauty School-Chandler,Chandler,AZ,85224,NULL,NULL,48,NULL,114,NULL,3,0.0833,0.9167,NULL,19232,NULL,NULL,0.6316,11746,25.59180918,0.501391208,81.44000244,2.099999905,1.710000038,16.72999954,1,www.empire.edu,www.empire.edu/net-price-calculator,33.347586,-111.860423
104504,2582700,27600,22100,Cortiva Institute-Tucson,Tucson,AZ,85710,NULL,NULL,99,NULL,161,NULL,3,0.2323,0.7677,NULL,23658,NULL,NULL,0.8261,6333,29.86131387,0.49695122,77.87000275,4.610000134,2.119999886,25.13999939,1,www.cortiva.com/,www.cortiva.com/npc/NetPriceCalculator_Tucson_Hoboken/npcalc_tucson_hoboken.htm,32.21901,-110.856785
104568,1085800,23000,19000,Avalon School of Cosmetology-Mesa,Mesa,AZ,85210,NULL,NULL,356,NULL,515,NULL,3,0.0449,0.9551,NULL,16901,NULL,NULL,0.6117,7478,24.92873741,0.488605287,80.98999786,3.039999962,2,19.54000092,1,avalon.edu/locations/mesa-az/,avalon.edu/financial-aid/net-price-calculator-2-2/,33.376583,-111.858305
104577,107300,35700,29200,Eastern Arizona College,Thatcher,AZ,85552-0769,NULL,NULL,4291,NULL,8682,NULL,2,0.4726,0.5274,12647,NULL,8091,0.2827,0.189,PrivacySuppressed,24.15144766,0.39347079,66.44000244,3.380000114,0.879999995,22.64999962,1,www.eac.edu,eac.edu/Student_Services/Financial_Aid/Net_Price/default.shtm,32.843664,-109.76234
104586,147902,70300,66200,Embry-Riddle Aeronautical University-Prescott,Prescott,AZ,86301-3720,NULL,0.6723,2712,50,2770,70,1,0.75,0.25,51036,NULL,9354,0.7083,0.2517,24996,25.38523146,0.355459272,78.79000092,9.75,3.640000105,11.32999992,3,prescott.erau.edu/,prescotterau.studentaidcalculator.com/survey.aspx,34.616766,-112.449741
104665,2533200,NULL,NULL,School of Architecture at Taliesin,Scottsdale,AZ,85259,NULL,NULL,NULL,19,NULL,30,1,NULL,NULL,NULL,NULL,4778,NULL,NULL,PrivacySuppressed,NULL,NULL,NULL,NULL,NULL,NULL,3,www.taliesin.edu,taliesin.edu/NetPrice/npcalc.htm,33.607097,-111.845411
104708,107600,38300,34500,Glendale Community College,Glendale,AZ,85302,NULL,NULL,13588,NULL,27350,NULL,2,0.4565,0.5435,11843,NULL,9055,1,0.3292,8000,24.81320098,0.529686243,75.16999817,4.199999809,2.200000048,27.11000061,1,www.gccaz.edu,https://www.maricopa.edu/npc/gcc/npcalc.htm,33.570226,-112.190735
104717,107400,58500,52700,Grand Canyon University,Phoenix,AZ,85017,NULL,0.732,53209,36114,76300,57448,1,0.2913,0.7087,31248,NULL,6546,0.078,0.4618,21073,31.01565192,0.474408053,75.26000214,10.31999969,2.619999886,15.72000027,3,www.gcu.edu,https://www.gcu.edu/admissions/tuition-and-financing.php,33.513231,-112.129929
105145,830300,39000,34100,GateWay Community College,Phoenix,AZ,85034,NULL,NULL,4188,NULL,7660,NULL,2,0.4286,0.5714,12180,NULL,8855,1,0.322,6750,27.91328671,0.56622807,69.80000305,4.610000134,1.950000048,32.40999985,1,www.gatewaycc.edu,www.gatewaycc.edu/enroll/paying-for-college,33.449686,-111.997077
105154,107700,41500,36000,Mesa Community College,Mesa,AZ,85202,NULL,NULL,15775,NULL,30010,NULL,2,0.4754,0.5246,12362,NULL,9308,1,0.279,8000,25.26604313,0.457851491,77.83000183,3.150000095,2.359999895,19.80999947,2,www.mesacc.edu,www.mesacc.edu/students/net-price-calculator.html,33.390323,-111.871255
105206,1186400,32900,27500,Mohave Community College,Kingman,AZ,86409-1238,NULL,NULL,2778,NULL,5809,NULL,2,0.315,0.685,12854,NULL,6415,0.266,0.3864,13000,27.52591284,0.536089699,89.23000336,0.720000029,0.949999988,11.68000031,2,https://www.mohave.edu,https://www.mohave.edu/assets/NetPriceCalculator1415/npcalc.htm,35.270996,-114.029838
105215,2100500,41600,38700,Universal Technical Institute of Arizona Inc-Motorcycle Mechanics Institute Division,Phoenix,AZ,85027,NULL,NULL,952,NULL,1427,NULL,2,0.9454,0.0546,NULL,NULL,NULL,NULL,0.4842,14243,25.00465503,0.51090218,81.58000183,7.429999828,2.579999924,12.73999977,1,www.uti.edu/,www.uti.edu/admissions/tuition,33.684428,-112.121336
105297,824600,23400,21000,Dine College,Tsaile,AZ,86556,NULL,NULL,1399,NULL,2034,NULL,1,0.3259,0.6741,11550,NULL,5714,0.701,0.6464,PrivacySuppressed,24.19835841,0.431893688,5.340000153,0.189999998,0.150000006,1.940000057,2,https://www.dinecollege.edu,hooghan.dinecollege.edu/NetPriceCalculator/npcalc.htm,36.293328,-109.21684
105330,108200,44600,40100,Northern Arizona University,Flagstaff,AZ,86011-4092,NULL,0.8262,26647,3994,29918,4885,1,0.3871,0.6129,26748,NULL,8207,0.6573,0.3479,19500,24.12509743,0.386862576,74.90000153,2.470000029,2.220000029,18.75,3,https://nau.edu/,https://www7.nau.edu/finaid/NetPriceCalculator/,35.188449,-111.653724
105349,1186200,31300,25200,Northland Pioneer College,Holbrook,AZ,86025-0610,NULL,NULL,1235,NULL,5970,NULL,2,0.3377,0.6623,13819,NULL,6141,0.5137,0.1748,PrivacySuppressed,26.97667639,0.466437177,50.86999893,0.920000017,0.379999995,9.930000305,1,www.npc.edu,www.npc.edu/financial-aid-scholarships/net-price-calculator,34.93031,-110.142199
105367,193701,48100,41500,Ottawa University-Phoenix,Phoenix,AZ,85021,NULL,NULL,340,465,586,643,1,0.2853,0.7147,NULL,NULL,6871,0.875,0.5,22371,29.53267974,0.400868307,80.31999969,8.359999657,1.879999995,12.73999977,3,www.ottawa.edu,www.ottawa.edu/resources/netpricecalculator/npcalc.htm,33.572173,-112.113001
105428,107800,36000,31900,Phoenix College,Phoenix,AZ,85013,NULL,NULL,8472,NULL,17335,NULL,2,0.347,0.653,12075,NULL,8921,1,0.3808,9000,25.67357708,0.61575524,65.97000122,5.300000191,1.899999976,39.29999924,2,www.phoenixcollege.edu,www.phoenixcollege.edu/tuition-and-fees/net-price-calculators,33.481361,-112.088293
105482,2623800,26200,21900,Cortiva Institute-Scottsdale,Scottsdale,AZ,85257,NULL,NULL,69,NULL,137,NULL,3,0.2754,0.7246,NULL,22011,NULL,NULL,0.6788,7600,30.23076923,0.475609756,79.66999817,2.890000105,1.75,19.64999962,1,www.cortiva.com/,www.cortiva.com/locations/arizona-massage-school/tuition-financial-aid.aspx,33.466153,-111.90807
105525,726600,35000,30900,Pima Community College,Tucson,AZ,85709-1275,NULL,NULL,17246,NULL,33740,NULL,2,0.4294,0.5706,8853,NULL,5380,0.2696,0.3167,7437,24.66969086,0.477607973,72.81999969,3.369999886,2,32.06000137,1,www.pima.edu,www.pima.edu/web/net-price-calculator/npc.htm,32.222125,-110.886659
105534,2217100,30600,28800,Pima Medical Institute-Tucson,Tucson,AZ,85712,NULL,NULL,1851,NULL,3535,NULL,1,0.2026,0.7974,NULL,27079,5157,0.309,0.568,9500,26.64197627,0.505392912,71.01000214,5.070000172,4.630000114,27.20999908,1,pmi.edu,https://secure.pmi.edu/npcalc/,32.248067,-110.878783
105543,2217103,30600,28800,Pima Medical Institute-Albuquerque,Albuquerque,NM,87110,NULL,NULL,565,NULL,1309,NULL,2,0.2354,0.7646,NULL,23048,5019,0.3333,0.6547,9500,26.64197627,0.505392912,71.01000214,5.070000172,4.630000114,27.20999908,1,pmi.edu,https://secure.pmi.edu/npcalc/,35.104855,-106.59488
105589,2065300,34300,33200,Prescott College,Prescott,AZ,86301,NULL,0.9516,394,371,542,432,1,0.3503,0.6497,41957,NULL,5286,0.6935,0.4773,18510,27.98067633,0.231958763,81.87000275,3.279999971,2.619999886,15.36999989,3,https://www.prescott.edu,app.prescott.edu/net-price-calculator/,34.5452,-112.477185
105659,1168900,45000,41500,Refrigeration School Inc,Phoenix,AZ,85034-1816,NULL,NULL,912,NULL,1308,NULL,2,0.9507,0.0493,NULL,27333,4239,0.9167,0.6208,9500,30.48436019,0.522565321,70.52999878,4,1.879999995,27.67000008,1,https://www.refrigerationschool.com,https://www.refrigerationschool.com/calculator/,33.448692,-111.989357
105668,2177500,43400,39500,Rio Salado College,Tempe,AZ,85281,NULL,NULL,6066,NULL,42716,NULL,2,0.3089,0.6911,10942,NULL,6182,1,0.1377,7702,30.17698328,0.473234743,77.12000275,4.670000076,2.150000095,22.29000092,1,www.rio.maricopa.edu,www.riosalado.edu/cashier/Pages/TuitionCalculator.aspx,33.413309,-111.97417
105677,2113800,29000,24000,Roberto-Venn School of Luthiery,Phoenix,AZ,85007,NULL,NULL,20,NULL,47,NULL,3,1,0,NULL,24335,NULL,NULL,0.4043,PrivacySuppressed,27.5,PrivacySuppressed,84.06999969,4,3.029999971,12.06999969,1,www.roberto-venn.com,roberto-venn.com/guitar-making-repair-program/net-price-calculator/,33.45489,-112.086161
105747,830400,42500,35600,Scottsdale Community College,Scottsdale,AZ,85256,NULL,NULL,5660,NULL,13652,NULL,2,0.4564,0.5436,12661,NULL,9120,1,0.1735,7500,25.55099648,0.40233498,80.80999756,3.049999952,2.24000001,16.31999969,2,www.scottsdalecc.edu,https://www.scottsdalecc.edu/students/student-business-services/net-price-calculator,33.51135,-111.885186
105792,2146600,33400,30200,South Mountain Community College,Phoenix,AZ,85042,NULL,NULL,2933,NULL,5909,NULL,2,0.4238,0.5762,11975,NULL,9028,1,0.4223,PrivacySuppressed,25.0490968,0.589511754,60.36999893,8.369999886,1.840000033,42.79999924,2,www.southmountaincc.edu,www.southmountaincc.edu/disclosures/,33.382406,-112.032635
105899,711300,34900,32200,Arizona Christian University,Glendale,AZ,85306-3216,1032,0.5644,705,NULL,834,NULL,1,0.5674,0.4326,37562,NULL,4607,0.2577,0.4173,21938,22.75910931,0.382550336,82.26999664,2.349999905,2.390000105,19.70999908,3,www.arizonachristian.edu,arizonachristian.edu/admissions/financial-aid/calculator,33.622952,-112.181776
106041,822100,48100,45200,Universal Technical Institute of Arizona Inc,Avondale,AZ,85323,NULL,NULL,1869,NULL,2461,NULL,2,0.9486,0.0514,NULL,24803,5214,NULL,0.5437,14966,22.80322043,0.548605358,73.59999847,7.360000134,4.420000076,19.86000061,1,www.uti.edu,www.uti.edu/admissions/tuition,33.453005,-112.288123
106111,945915,20200,18200,Empire Beauty School-NW Phoenix,Phoenix,AZ,85051,NULL,NULL,87,NULL,177,NULL,3,0.0575,0.9425,NULL,19158,NULL,NULL,0.7288,13000,26.16532041,0.552452316,64.27999878,5.46999979,1.820000052,43.15999985,1,www.empire.edu,www.empire.edu/net-price-calculator,33.538093,-112.118168
106148,107900,34000,28800,Yavapai College,Prescott,AZ,86301,NULL,NULL,4598,NULL,10116,NULL,2,0.4093,0.5907,11961,NULL,7392,0.5274,0.2866,10500,27.90088198,0.5,86.30999756,0.939999998,0.839999974,11.09000015,1,www.YC.EDU,www.yc.edu/webtools/forms/netpricecalc/,34.547495,-112.453395
106245,110100,39500,34900,University of Arkansas at Little Rock,Little Rock,AR,72204,1099,0.7933,6328,2800,10862,3567,1,0.3807,0.6193,21301,NULL,7623,0.9709,0.36,20937,25.51552309,0.391040462,70.05000305,26.06999969,1.019999981,2.569999933,3,ualr.edu/www/,ualr.edu/finaid/npc/npcalc.htm,34.723254,-92.339778
106263,110900,69000,61000,University of Arkansas for Medical Sciences,Little Rock,AR,72205-7199,NULL,NULL,601,2152,700,2406,1,0.178,0.822,NULL,NULL,9396,0.8453,0.3638,14000,28.42,0.395027624,79.33999634,16.45000076,0.860000014,2.970000029,3,www.uams.edu,studentfinancialservices.uams.edu/tuition-and-fees/,34.749048,-92.320046
106306,108700,25100,21800,Arkansas Baptist College,Little Rock,AR,72202-6068,NULL,NULL,525,NULL,858,NULL,1,0.7371,0.2629,22502,NULL,4407,0.4878,0.8061,25250,21.672,0.449528937,50.86000061,44.66999817,1.029999971,3.470000029,2,www.arkansasbaptist.edu,www.arkansasbaptist.edu/financial-aid/net-price-calculator/,34.734751,-92.290555
106315,3005100,16400,14000,Arkansas Beauty School-Little Rock,Little Rock,AR,72209,NULL,NULL,125,NULL,220,NULL,3,0.032,0.968,NULL,25734,NULL,NULL,0.7227,6333,28.24309392,0.554054054,51.06000137,44.34000015,0.930000007,3.430000067,1,arkbeautyschool.com,arkbeautyschool.com,34.672171,-92.343366
106324,3997300,PrivacySuppressed,PrivacySuppressed,Arkansas Beauty College,Russellville,AR,72801,NULL,NULL,15,NULL,40,NULL,3,0,1,NULL,12951,NULL,NULL,0.8,6117,25.36363636,0.529411765,NULL,NULL,NULL,NULL,1,https://www.arkansasbeautycollege.us/,arkbeautycollege.wixsite.com/netpricecalculator,35.27902,-93.135369
106342,108800,44800,38600,Lyon College,Batesville,AR,72501,1195,0.4986,655,NULL,694,NULL,1,0.5664,0.4336,38173,NULL,6655,1,0.3854,23250,19.92011019,0.3,88.70999908,6.869999886,0.930000007,3.130000114,3,www.lyon.edu,https://my.lyon.edu/ICS/Portal_Homepage.jnz?portlet=External_Content,35.777619,-91.625354
106351,3023400,19000,15300,Arkansas College of Barbering and Hair Design,North Little Rock,AR,72114,NULL,NULL,128,NULL,213,NULL,3,0.6563,0.3438,NULL,25828,NULL,NULL,0.7277,16500,28.01123596,0.618421053,50.77999878,45.25,0.75999999,2.900000095,1,www.arkansascollegeofbarbering.com,www.arkansascollegeofbarbering.com,34.753843,-92.266429
106360,2363500,19600,17300,Arthur's Beauty College Inc-Fort Smith,Fort Smith,AR,72901-3342,NULL,NULL,31,NULL,60,NULL,3,0,1,NULL,14333,NULL,NULL,0.7167,13000,25.57228916,0.542857143,81.37000275,5.639999866,2.970000029,6.389999866,1,www.arthursbeautycollege.com,https://www.arthursbeautycollege.com/fort-smith.html,35.379955,-94.410967
106397,110800,52700,44900,University of Arkansas,Fayetteville,AR,72701,1238,0.7747,23121,4392,24897,5481,1,0.4649,0.5351,22750,NULL,9866,0.8632,0.1998,21500,21.28390724,0.259961487,84.94999695,7.809999943,1.480000019,5.21999979,3,https://www.uark.edu,https://finaid.uark.edu/aid-calculator.php,36.070009,-94.176981
106412,108600,30600,27200,University of Arkansas at Pine Bluff,Pine Bluff,AR,71601,978,0.4435,2467,106,2730,142,1,0.4131,0.5869,17689,NULL,5894,0.8069,0.7231,23553,21.15302491,0.367737526,42.91999817,52.70000076,0.959999979,3.940000057,3,www.uapb.edu,www.uapb.edu/admissions/net_price_calculator.aspx,34.244031,-92.018683
106449,109100,32900,29400,Arkansas State University-Beebe,Beebe,AR,72012-1000,NULL,NULL,2473,NULL,5423,NULL,2,0.3619,0.6381,12491,NULL,5040,0.5556,0.3394,7207,23.77515118,0.456161864,91.83999634,5.269999981,0.419999987,1.870000005,1,www.asub.edu,www.asub.edu/financial-aid/1718-files/npcalc.htm,35.074176,-91.895351
106458,109000,36600,32200,Arkansas State University-Main Campus,Jonesboro,AR,72401,1189,0.7721,8623,4359,11038,7994,1,0.4003,0.5997,21375,NULL,6902,0.7609,0.4117,21250,23.31908704,0.388266797,83.26000214,13.94999981,0.49000001,1.929999948,3,www.astate.edu/,www.astate.edu/a/finaid/tuition-fees/net-price-calculator/index.dot,35.842388,-90.679988
106467,108900,38600,34100,Arkansas Tech University,Russellville,AR,72801-2222,NULL,0.9024,7896,950,12058,1429,1,0.4519,0.5481,18627,NULL,6833,1,0.3955,20450,23.04162127,0.457478006,89.76000214,5.539999962,0.600000024,3.650000095,3,www.atu.edu,www.atu.edu/finaid/npcalc.htm,35.293237,-93.13562
106485,108500,35800,31500,University of Arkansas at Monticello,Monticello,AR,71656,NULL,NULL,2412,301,3841,461,1,0.4357,0.5643,17653,NULL,5696,1,0.5686,17500,23.63097113,0.453397474,64.18000031,32.63999939,0.400000006,2.849999905,1,www.uamont.edu/,uam-web2.uamont.edu/netprice/npcalc.htm,33.590909,-91.811153
106494,2538500,18500,15300,Arthur's Beauty College Inc-Jacksonville,Jacksonville,AR,72076,NULL,NULL,36,NULL,84,NULL,3,0.0556,0.9444,NULL,15350,NULL,NULL,0.6429,9833,26.15458937,0.460674157,74.63999939,22.28000069,0.629999995,1.789999962,1,arthursbeautycollege.com,https://www.arthursbeautycollege.com/jacksonville.html,34.891572,-92.102579
106546,3105200,48100,47200,Baptist Health College Little Rock,Little Rock,AR,72210-2827,1015,0.6667,648,NULL,928,NULL,2,0.1358,0.8642,24473,NULL,6569,0.6456,0.7766,9500,26.0512,0.416955017,75.94999695,20.92000008,0.680000007,1.929999948,2,https://www.bhclr.edu,https://www.bhclr.edu/student-services/accounts/netprice/npcalc.htm,34.713115,-92.40692
106625,2052200,29100,26100,Black River Technical College,Pocahontas,AR,72455,NULL,NULL,1271,NULL,1802,NULL,2,0.3556,0.6444,12045,NULL,4934,0.5575,0.5203,9686,24.77405405,0.480697385,96.30000305,1.480000019,0.150000006,0.99000001,1,www.blackrivertech.edu,www.blackrivertech.org/financial-aid/net-price-calculator,36.239793,-90.951033
106704,109200,42500,38300,University of Central Arkansas,Conway,AR,72035-0001,1186,0.911,8906,1752,10616,2332,1,0.3958,0.6042,21350,NULL,7040,0.7806,0.4298,21500,21.15254237,0.345958922,79.80000305,16.56999969,0.720000029,2.50999999,3,www.uca.edu,uca.edu/financialaid/financial-aid-net-price-calculator/,35.077945,-92.457672
106713,109300,43000,35300,Central Baptist College,Conway,AR,72034,1004,0.6074,663,NULL,859,NULL,1,0.54,0.46,25303,NULL,5448,0.2692,0.4671,24250,24.79196218,0.345549738,83.27999878,12.46000004,0.810000002,2.980000019,3,www.cbc.edu,www.cbc.edu/financial_aid/net_price_calculator.aspx,35.083838,-92.445021
106795,2220900,28000,23100,Cossatot Community College of the University of Arkansas,De Queen,AR,71832,NULL,NULL,903,NULL,1983,NULL,2,0.3189,0.6811,10512,NULL,5087,0.5,0.3638,PrivacySuppressed,23.24208566,0.586206897,79,12.60999966,0.25999999,9.170000076,1,www.cccua.edu/,www.cccua.edu/pay-for-college/net-price-calculator,34.043389,-94.3673
106810,109500,29600,26000,Crowley's Ridge College,Paragould,AR,72450,NULL,NULL,178,NULL,224,NULL,1,0.5112,0.4888,20912,NULL,4175,0.5,0.4019,23813,20.22875817,0.395683453,89.69000244,7.269999981,0.479999989,2.289999962,3,www.crc.edu/,crc.edu//financial_aid/netpricecalculator/netpricecalculator.html,36.064845,-90.584395
106829,704400,23800,19300,Crowley's Ridge Technical Institute,Forrest City,AR,72335-0925,NULL,NULL,168,NULL,184,NULL,3,0.5417,0.4583,9219,NULL,NULL,NULL,0.7561,NULL,25.77333333,0.563535912,58.72000122,39.31999969,0.379999995,2.539999962,NULL,www.crti.tec.ar.us,www.crti.tec.ar.us,35.039816,-90.767321
106883,1226000,26800,22700,East Arkansas Community College,Forrest City,AR,72335-2204,NULL,NULL,683,NULL,1575,NULL,2,0.3821,0.6179,10598,NULL,4755,0.4771,0.6067,4450,22.30588235,0.508287293,57.02999878,40.79999924,0.430000007,3.150000095,1,https://WWW.EACC.EDU,https://www.eacc.edu/pages?id=100,35.041655,-90.767726
106892,2272400,22300,21700,Eastern College of Health Vocations-Little Rock,Little Rock,AR,72205,NULL,NULL,121,NULL,413,NULL,3,0.0744,0.9256,NULL,14963,NULL,NULL,0.8281,4017,26.4084507,0.594218415,58.72999954,37.54000092,0.879999995,2.789999962,1,www.easterncollege.edu,www.https://easterncollege.edu/consumer-info/,34.75128,-92.341891
106908,3124900,PrivacySuppressed,PrivacySuppressed,Imagine-Paul Mitchell Partner School,North Little Rock,AR,72117,NULL,NULL,382,NULL,568,NULL,3,0.0497,0.9503,NULL,21570,NULL,NULL,0.6989,12357,24.19614711,0.456790124,64.12999725,32.25999832,0.779999971,2.329999924,1,paulmitchell.edu/littlerock,paulmitchell.edu/littlerock/programs/cosmetology,34.789913,-92.222202
106980,1210500,28100,25100,National Park College,Hot Springs,AR,71913,NULL,NULL,1869,NULL,3429,NULL,2,0.3842,0.6158,13072,NULL,5258,1,0.6561,10903,25.58117326,0.456661316,88.87000275,7.570000172,0.469999999,2.670000076,2,www.np.edu,https://np.edu/admissions/financial-aid/consumer-disclosures/index.html,34.512687,-93.119248
106999,2073500,30300,25500,University of Arkansas Community College-Batesville,Batesville,AR,72503-3350,NULL,NULL,921,NULL,1544,NULL,2,0.2932,0.7068,12896,NULL,4339,0.2517,0.5024,8741,24.26237624,0.458571429,95.19000244,2.190000057,0.460000008,1.350000024,1,www.uaccb.edu,www.uaccb.edu/sites/default/files/content/net-price-calculator/net-price-calculator.html,35.792923,-91.615852
107044,109700,47000,40900,Harding University,Searcy,AR,72149-5615,1222,0.7462,3953,1147,4530,1666,1,0.4617,0.5383,29827,NULL,7473,0.8054,0.2524,26000,20.98695951,0.205479452,84.52999878,8.899999619,1.820000052,5.730000019,3,www.harding.edu,www.harding.edu/admissions/npc.html,35.247386,-91.726143
107071,109800,40400,35700,Henderson State University,Arkadelphia,AR,71999-0001,1116,0.9055,2996,557,3151,699,1,0.4342,0.5658,20429,NULL,6703,0.9951,0.5071,19500,21.53536515,0.376738306,78.79000092,16.47999954,0.769999981,4.300000191,3,https://www.hsu.edu,https://www.hsu.edu/pages/future-students/financial-aid/net-price-calculator/,34.128155,-93.059703
107080,109900,44500,39700,Hendrix College,Conway,AR,72032-3080,1346,0.7217,1192,6,1521,12,1,0.4807,0.5193,59901,NULL,7708,1,0.2857,27000,19.43055556,0.192066806,81.62000275,11.77000046,2.00999999,5.559999943,3,www.hendrix.edu,www.hendrix.edu/Admission/PriceCalculator/,35.101565,-92.443256
107099,3007100,PrivacySuppressed,PrivacySuppressed,Hot Springs Beauty College,Hot Springs,AR,71901,NULL,NULL,28,NULL,47,NULL,3,0.1071,0.8929,NULL,14323,NULL,NULL,0.8936,PrivacySuppressed,25.54385965,0.446808511,88.45999908,8.449999809,0.439999998,2.309999943,1,hotspringsbeautycollege.com,hotspringsbeautycollege.com,34.496057,-93.037277
107123,2330800,PrivacySuppressed,PrivacySuppressed,Jefferson Regional Medical Center School of Nursing,Pine Bluff,AR,71603,NULL,NULL,70,NULL,128,NULL,2,0.1286,0.8714,NULL,NULL,6959,NULL,0.5938,12875,26.06976744,PrivacySuppressed,66.30000305,31.44000053,0.479999989,1.320000052,1,www.jrmc.org,www.jrmc.org/schoolofnursing/Calculator/npcalc.htm,34.187831,-92.018045
107141,110000,55400,45800,John Brown University,Siloam Springs,AR,72761,1257,0.7715,1575,613,2158,812,1,0.4146,0.5854,38834,NULL,7049,0.9848,0.2921,22688,24.15714286,0.288828338,85.83999634,5.010000229,1.559999943,6.519999981,3,www.jbu.edu,info.eaglenet.jbu.edu/npc,36.189812,-94.560283
107220,2341700,23600,20000,Career Academy of Hair Design,Springdale,AR,72764-7128,NULL,NULL,211,NULL,295,NULL,3,0.0474,0.9526,NULL,15621,NULL,NULL,0.7017,7885,25.75561798,0.608843537,88.47000122,2.24000001,1.299999952,8.609999657,1,www.beautynwa.com,www.beautynwa.com/npcalc/,36.167605,-94.12947
107293,1074100,PrivacySuppressed,PrivacySuppressed,Academy of Salon and Spa,Fort Smith,AR,72901,NULL,NULL,53,NULL,92,NULL,3,0,1,NULL,16317,NULL,NULL,0.75,6251,26.57264957,0.505050505,85.98000336,3.400000095,1.840000033,5.300000191,1,www.academysalonspa.com,www.academysalonspa.com,35.38097,-94.41616
107318,2348200,26700,22500,Arkansas State University Mid-South,West Memphis,AR,72301-3829,NULL,NULL,657,NULL,2029,NULL,2,0.3135,0.6865,14384,NULL,4311,1,0.4279,PrivacySuppressed,24.96578947,0.594427245,51.40000153,46.43000031,0.479999989,1.5,1,www.asumidsouth.edu,www.asumidsouth.edu/NetPriceCalculator16/npcalc.htm,35.145736,-90.22285
107327,1286000,30800,25700,Arkansas Northeastern College,Blytheville,AR,72316-1109,NULL,NULL,881,NULL,2066,NULL,2,0.3394,0.6606,10480,NULL,5202,1,0.3541,PrivacySuppressed,23.82154341,0.589453861,72.08999634,25.26000023,0.349999994,2.039999962,1,www.anc.edu,www.anc.edu/netprice/index.html,35.898597,-89.921005
107442,2284200,19200,15900,New Tyler Barber College Inc,North Little Rock,AR,72114-4973,NULL,NULL,38,NULL,69,NULL,3,0.6579,0.3421,NULL,19444,NULL,NULL,0.7681,PrivacySuppressed,27.90769231,0.56,55.20000076,41.13000107,0.870000005,2.339999914,1,newtylerbarbercollege.edu,https://www.newtylerbarbercollege.edu/prospective-students/net-price-calculator/,34.760085,-92.254171
107460,1226100,28900,25600,North Arkansas College,Harrison,AR,72601-5508,NULL,NULL,1393,NULL,2311,NULL,2,0.3812,0.6188,10089,NULL,5246,0.5726,0.5409,8000,24.77272727,0.537511871,95.69999695,0.99000001,0.300000012,2.660000086,1,www.northark.edu,www.northark.edu/NetPrice/npcalc.htm,36.219909,-93.08844
107488,2073700,32500,29800,Northwest Technical Institute,Springdale,AR,72764,NULL,NULL,237,NULL,288,NULL,3,0.5865,0.4135,8201,NULL,NULL,NULL,0.6563,PrivacySuppressed,26.19491525,0.586387435,89.33999634,1.480000019,1.190000057,8.140000343,1,www.nwti.edu,www.nwtionline.com/NetPriceCalculator/npcalc.htm,36.178032,-94.115346
107512,110200,46000,41200,Ouachita Baptist University,Arkadelphia,AR,71998-0001,1193,0.636,1546,NULL,1656,NULL,1,0.4489,0.5511,37349,NULL,6418,1,0.2928,22104,19.76295133,0.235489221,78.98999786,12.77999973,2.369999886,7.630000114,3,www.obu.edu,www.obu.edu/finaid/,34.126093,-93.052471
107521,997600,31000,27500,Arkansas State University Three Rivers,Malvern,AR,72104-0816,NULL,NULL,566,NULL,1692,NULL,2,0.2686,0.7314,12338,NULL,4781,0.3362,0.3145,10963,27.43769968,0.5,85.44000244,11.88000011,0.360000014,1.570000052,1,www.coto.edu,www.coto.edu/sites/default/static/netpricecalc/npcalc.htm,34.378745,-92.821416
107549,2087000,28100,23800,Ozarka College,Melbourne,AR,72556-0010,NULL,NULL,761,NULL,1588,NULL,2,0.226,0.774,12416,NULL,4627,0.4118,0.5405,9000,26.5,0.509219858,96.90000153,0.629999995,0.150000006,1.019999981,1,www.ozarka.edu,www.ozarka.edu/finaid/npcalc.cfm,36.053031,-91.896355
107558,109400,38600,33900,University of the Ozarks,Clarksville,AR,72830,NULL,0.5232,862,NULL,800,NULL,1,0.493,0.507,35136,NULL,6740,0.7647,0.404,19500,20.13483146,0.346875,85.80000305,6.570000172,1.129999995,7.28000021,3,https://www.ozarks.edu,https://admissions.ozarks.edu/secure/calc/default.aspx,35.476278,-93.467221
107585,524500,31600,27500,University of Arkansas Community College-Morrilton,Morrilton,AR,72110,NULL,0.7415,1720,NULL,2513,NULL,2,0.3651,0.6349,10389,NULL,5033,1,0.5279,10375,24.36411264,0.492526158,90.13999939,6.329999924,0.430000007,2.349999905,1,www.uaccm.edu,www.uaccm.edu/Future_Student/calculator.html,35.172136,-92.728507
107600,110300,27300,24400,Philander Smith College,Little Rock,AR,72202-3799,NULL,NULL,1000,NULL,1049,NULL,1,0.337,0.663,25290,NULL,6045,1,0.8126,25000,21.86079183,0.430340557,48.08000183,46.15999985,1.419999957,4.929999828,3,https://www.philander.edu,https://www.philander.edu/netpricecalculator,34.737131,-92.283015
107619,110400,26200,22400,Phillips Community College of the University of Arkansas,Helena,AR,72342-0785,NULL,NULL,710,NULL,2144,NULL,2,0.3056,0.6944,10501,NULL,4883,0.6556,0.349,PrivacySuppressed,22.59364549,0.445945946,53.47000122,44.65999985,0.360000014,1.460000038,1,www.pccua.edu,hdatatelweb.pccua.edu/web/netcalc/netcalc.html,34.546155,-90.616884
107637,570700,29700,26700,Southeast Arkansas College,Pine Bluff,AR,71603,NULL,NULL,947,NULL,1792,NULL,2,0.2904,0.7096,12149,NULL,4801,0.5581,0.6403,9081,24.99534342,0.527740189,54.06000137,43.79999924,0.550000012,1.24000001,1,www.seark.edu,www.seark.edu/financial-aid/net-price-calculator,34.210309,-92.025936
107655,2202400,PrivacySuppressed,PrivacySuppressed,Professional Cosmetology Education Center,El Dorado,AR,71730-4009,NULL,NULL,30,NULL,40,NULL,3,0.0333,0.9667,NULL,11071,NULL,NULL,0.775,9833,25.25,PrivacySuppressed,64.47000122,33.75,0.289999992,1.090000033,1,www.pcec.edu,www.pcec.edu/wp-content/uploads/2019/10/index-PCEC.html,33.216032,-92.664101
107664,2075300,30700,27700,University of Arkansas-Pulaski Technical College,North Little Rock,AR,72118-3347,NULL,NULL,3705,NULL,8048,NULL,2,0.3671,0.6329,16796,NULL,4859,1,0.494,13500,26.09668273,0.439144737,63.70999908,32.43000031,0.920000017,2.480000019,1,uaptc.edu,mediaserver.uaptc.edu/net-price-calculator/index.html,34.782783,-92.299184
107725,573200,28600,24400,University of Arkansas Hope-Texarkana,Hope,AR,71801,NULL,NULL,1542,NULL,2078,NULL,2,0.3294,0.6706,13574,NULL,4317,0.4681,0.5911,PrivacySuppressed,24.32867884,0.550377834,67.01000214,28.75,0.230000004,4.679999828,1,www.uaht.edu,www.uaht.edu/about/tuition-and-fees/tuition-calculator/,33.641665,-93.596762
107743,2111100,24100,20800,University of Arkansas Community College Rich Mountain,Mena,AR,71953,NULL,NULL,449,NULL,1187,NULL,2,0.2918,0.7082,11854,NULL,4615,0.38,0.3795,PrivacySuppressed,24.11386139,0.635327635,93.87999725,0.340000004,0.479999989,3.779999971,1,www.uarichmountain.edu,www.uarichmountain.edu/financial-aid/net-price-calculator,34.591449,-94.219799
107789,792100,PrivacySuppressed,PrivacySuppressed,Paul Mitchell the School-Arkansas,Fayetteville,AR,72703,NULL,NULL,95,NULL,156,NULL,3,0.0632,0.9368,NULL,22767,NULL,NULL,0.5064,9833,23.47133758,0.482014389,89.58999634,1.870000005,1.269999981,6.269999981,1,https://paulmitchell.edu/arkansas/,https://paulmitchell.edu/arkansas/programs/cosmetology,36.126373,-94.153892
107831,2569600,17200,13400,Searcy Beauty College,Searcy,AR,72143,NULL,NULL,75,NULL,111,NULL,3,0.0267,0.9733,NULL,24570,NULL,NULL,0.7117,10612,26.69811321,0.670454546,90.55999756,7.010000229,0.270000011,1.5,1,searcybeautycollege.com/,searcybeautycollege.com,35.239148,-91.735135
107840,110500,NULL,NULL,Shorter College,N Little Rock,AR,72114,NULL,NULL,569,NULL,1099,NULL,2,0.5413,0.4587,21618,NULL,4218,1,0.9827,25250,33.14017341,0.557281553,NULL,NULL,NULL,NULL,2,www.shortercollege.edu,www.shortercollege.edu/net-price-calculator,34.75933,-92.261331
107877,110600,36400,33100,Williams Baptist University,Walnut Ridge,AR,72476,1034,0.5639,460,17,539,10,1,0.5717,0.4283,28424,NULL,5355,0.9615,0.5011,21000,20.94230769,0.323529412,90.87000275,6.099999905,0.389999986,1.700000048,3,https://williamsbaptistuniversity.com/,https://npc.collegeboard.org/app/wbcoll,36.125676,-90.940277
107974,2074600,32700,29000,South Arkansas Community College,El Dorado,AR,71731-7010,NULL,NULL,1143,NULL,2070,NULL,2,0.238,0.762,12743,NULL,4903,1,0.5773,9654,26.3265857,0.539556962,65.55000305,32.06999969,0.360000014,1.769999981,1,www.southark.edu,https://www.southark.edu/admissions/support/net-price-calculator,33.209446,-92.666087
107983,110700,39000,35700,Southern Arkansas University Main Campus,Magnolia,AR,71753,1105,0.6878,3203,929,3866,1601,1,0.4511,0.5489,22116,NULL,6861,0.6629,0.4915,18945,21.33203125,0.420921544,67.48000336,28.75,0.620000005,3.559999943,3,https://www.saumag.edu,https://www.saumag.edu/netprice/,33.291618,-93.235922
107992,773800,31200,26700,Southern Arkansas University Tech,Camden,AR,71701-1906,NULL,NULL,733,NULL,1976,NULL,2,0.4993,0.5007,18368,NULL,4239,0.5231,0.402,5500,24.7195122,0.524390244,63.36000061,34.47999954,0.270000011,1.460000038,1,www.sautech.edu,www.sautech.edu/netPriceCalc/npcalc.htm,33.628367,-92.721629
108065,3214300,PrivacySuppressed,PrivacySuppressed,Velvatex College of Beauty Culture,Little Rock,AR,72202-5452,NULL,NULL,16,NULL,15,NULL,3,0,1,NULL,13152,NULL,NULL,0.7333,PrivacySuppressed,30.54545455,0.636363636,49.77000046,46.29999924,0.930000007,2.640000105,1,www.velvatexcollege.com,www.velvatexcollege.com,34.735685,-92.289597
108092,111000,35000,31000,University of Arkansas-Fort Smith,Fort Smith,AR,72913-3649,NULL,NULL,5235,26,7517,25,1,0.418,0.582,16434,NULL,6921,0.6499,0.4338,17550,22.9306017,0.484022156,85.94000244,3.970000029,1.950000048,4.769999981,3,uafs.edu/,admissions.uafs.edu/sites/admissions.uafs.edu/files/Departments/Financial/documents/np_calc/Net%20Price%20Calculator.htm,35.384184,-94.373729
108232,753100,47300,38600,Academy of Art University,San Francisco,CA,94105,NULL,NULL,6898,3565,9827,4864,1,0.439,0.561,39735,NULL,8492,0.2147,0.3623,31000,25.72972973,0.408370159,67.91000366,8.25,11.90999985,15.34000015,3,www.academyart.edu,https://npc.collegeboard.org/student/app/academyart,37.787943,-122.400578
108269,3288300,NULL,NULL,Academy of Chinese Culture and Health Sciences,Oakland,CA,94612,NULL,NULL,NULL,103,NULL,158,1,NULL,NULL,NULL,NULL,NULL,NULL,NULL,PrivacySuppressed,NULL,NULL,PrivacySuppressed,PrivacySuppressed,PrivacySuppressed,PrivacySuppressed,3,www.acchs.edu,www.acchs.edu/npcalc.htm,37.805972,-122.269839
108348,2342400,34200,31000,The Academy of Radio and TV Broadcasting,Huntington Beach,CA,92647,NULL,NULL,26,NULL,36,NULL,3,0.6923,0.3077,NULL,28835,NULL,NULL,0.8889,9500,32.28205128,PrivacySuppressed,55.34000015,11.01000023,7.659999847,38.47999954,1,WWW.ARBRADIO.COM,arbradio.com/#section-new-career,33.729535,-117.987762
108649,2258600,23900,20000,Avalon School of Cosmetology-Alameda,Alameda,CA,94501,NULL,NULL,118,NULL,218,NULL,3,0.0508,0.9492,NULL,20081,NULL,NULL,0.6697,6332,25.5470852,0.517241379,38.09000015,29.29999924,15.81999969,19.92000008,1,avalon.edu/locations/alameda-ca/,avalon.edu/financial-aid/net-price-calculator-2-2/,37.764203,-122.243566
108667,672000,40500,34200,College of Alameda,Alameda,CA,94501,NULL,NULL,4975,NULL,10615,NULL,2,0.4287,0.5713,13680,NULL,8521,0.4078,0.1943,PrivacySuppressed,25.93333333,0.561310782,40.02000046,22.75,21.37999916,18.20999908,1,alameda.peralta.edu/,https://misweb.cccco.edu/npc/341/npcalc.htm,37.781017,-122.279303
108807,111100,35500,30400,Allan Hancock College,Santa Maria,CA,93454-6399,NULL,NULL,9045,NULL,17070,NULL,2,0.4561,0.5439,10784,NULL,8493,0.2768,0.2105,8000,23.22894641,0.594700687,67.05000305,3.589999914,4.039999962,41.40999985,2,www.hancockcollege.edu/,https://misweb.cccco.edu/npc/611/npcalc.htm,34.943716,-120.421144
108852,746501,38200,32700,American Academy of Dramatic Arts-Los Angeles,Los Angeles,CA,90028,NULL,0.7892,263,NULL,310,NULL,2,0.3954,0.6046,50100,NULL,8933,0.1481,0.275,12000,20.65873016,0.233983287,73.30999756,8.369999886,5.539999962,17.79000092,2,www.aada.edu,https://www.aada.edu/admissions/net-price-calculator/,34.095378,-118.343701
108861,112000,NULL,NULL,American Baptist Seminary of the West,Berkeley,CA,94704-3029,NULL,NULL,NULL,51,NULL,70,1,NULL,NULL,NULL,NULL,5493,NULL,NULL,PrivacySuppressed,PrivacySuppressed,PrivacySuppressed,NULL,NULL,NULL,NULL,3,www.absw.edu,www.absw.edu,37.865252,-122.256149
108870,2222000,NULL,NULL,American Film Institute Conservatory,Los Angeles,CA,90027-1625,NULL,NULL,NULL,339,NULL,379,1,NULL,NULL,NULL,NULL,8047,0.11,NULL,PrivacySuppressed,PrivacySuppressed,PrivacySuppressed,PrivacySuppressed,PrivacySuppressed,PrivacySuppressed,PrivacySuppressed,3,www.AFI.com,conservatory.afi.com/tuition-and-fees/,34.10767,-118.310018
108977,1307400,PrivacySuppressed,PrivacySuppressed,American Beauty College,West Covina,CA,91790,NULL,NULL,129,NULL,192,NULL,3,0.4729,0.5271,NULL,15291,NULL,NULL,0.5938,5704,25.15068493,0.636363636,43.22999954,10.71000004,10.40999985,53.43999863,1,www.americanbeautycollege.com,www.americanbeautycollege.com,34.069367,-117.936959
109040,2241800,35500,31800,American Career College-Los Angeles,Los Angeles,CA,90004,NULL,NULL,1284,NULL,2038,NULL,2,0.1861,0.8139,NULL,23043,5945,NULL,0.6433,9500,25.55442015,0.559902201,40.15999985,13.89999962,12.09000015,49.77999878,1,americancareercollege.edu,https://americancareercollege.aidcalc.cloud,34.079323,-118.292481
109086,2099200,PrivacySuppressed,PrivacySuppressed,American Conservatory Theater,San Francisco,CA,94108-5834,NULL,NULL,0,35,84,36,1,0,0,49581,NULL,4665,1,0.0769,PrivacySuppressed,PrivacySuppressed,PrivacySuppressed,70.51999664,12.59000015,7.650000095,13.09000015,1,www.act-sf.org,www.actaccess.org/netpricecalculator/npcalc.htm,37.787343,-122.40475
109208,123200,38100,32000,American River College,Sacramento,CA,95841-4286,NULL,NULL,28573,NULL,46394,NULL,2,0.5419,0.4581,11961,NULL,8443,0.3913,0.2148,15450,26.97778675,0.514147803,69.12999725,8.829999924,7.760000229,14.97999954,1,https://www.arc.losrios.edu/,https://www.arc.losrios.edu/admissions/cost-of-attendance/net-price-calculator,38.65085,-121.349672
109350,111300,34500,27100,Antelope Valley College,Lancaster,CA,93536-5426,NULL,NULL,12080,NULL,18532,NULL,1,0.4156,0.5844,13084,NULL,8808,0.1971,0.4596,11250,24.98190709,0.561569981,61.40000153,13.81000042,3.440000057,29.54000092,2,www.avc.edu,https://misweb.cccco.edu/npc/621/npcalc.htm,34.676207,-118.186166
109651,111600,62300,53600,Art Center College of Design,Pasadena,CA,91103,NULL,0.6765,1987,241,2716,268,1,0.4529,0.5471,64097,NULL,7776,0.2643,0.3072,32250,22.8465704,0.242884251,60.47999954,5.199999809,16.45999908,26.65999985,3,www.artcenter.edu,https://tcc.ruffalonl.com/Art-Center-College-of-Design/Freshman-Calculator,34.169031,-118.185102
109721,902200,27900,23000,Associated Technical College-Los Angeles,Los Angeles,CA,90017-1604,NULL,NULL,367,NULL,570,NULL,3,0.4469,0.5531,NULL,26526,NULL,NULL,0.8737,9500,30.54024256,0.597156398,32.81000137,13.35999966,13.55000019,59.43000031,1,www.atcla.edu,https://atcla.edu/calculator2019/,34.056102,-118.272364
109730,2553500,25300,19600,Associated Technical College-San Diego,San Diego,CA,92101,NULL,NULL,98,NULL,253,NULL,3,0.7653,0.2347,NULL,26494,NULL,NULL,0.7549,9500,32.64197531,0.508108108,50.41999817,11.03999996,11.35999966,40.04999924,1,www.atcsd.edu,www.atcsd.edu,32.715375,-117.157988
109785,111700,55900,51100,Azusa Pacific University,Azusa,CA,91702-7000,1147,0.6851,5545,4438,6239,5343,1,0.3459,0.6541,51578,NULL,9160,0.4042,0.326,24250,26.05728789,0.379825992,68.41999817,4.340000153,8.489999771,27.78000069,3,www.apu.edu,https://www.apu.edu/undergraduate-admissions/financialaid/calculator/,34.130047,-117.888375
109819,111800,36000,29800,Bakersfield College,Bakersfield,CA,93305-1299,NULL,NULL,19178,NULL,33600,NULL,1,0.4465,0.5535,12467,NULL,10776,0.5395,0.342,10832,23.19697343,0.630508475,56.68999863,5.96999979,3.849999905,44.36999893,2,www.bakersfieldcollege.edu/,https://misweb.cccco.edu/npc/521/npcalc.htm,35.40911,-118.973753
109907,111900,35000,29900,Barstow Community College,Barstow,CA,92311,NULL,NULL,2721,NULL,4588,NULL,2,0.3414,0.6586,16152,NULL,9621,0.2806,0.5193,PrivacySuppressed,26.90927522,0.531069827,62.50999832,10.75,3.019999981,28.88999939,2,www.barstow.edu,https://misweb.cccco.edu/npc/911/npcalc.htm,34.870285,-117.023412
109934,705000,21100,18200,Bellus Academy-Chula Vista,Chula Vista,CA,91911,NULL,NULL,202,NULL,307,NULL,2,0.3515,0.6485,NULL,28003,NULL,NULL,0.759,13685,25.66984127,0.56147541,45.38000107,10.27999973,13.31999969,47.34999847,1,www.bellusacademy.edu,https://www.bellusacademy.edu/wp-content/uploads/2019/10/NPC-Chula-Vista.html,32.614773,-117.083738
110060,3266300,PrivacySuppressed,PrivacySuppressed,Bethesda University,Anaheim,CA,92801,NULL,NULL,238,133,334,160,1,0.6765,0.3235,17255,NULL,NULL,NULL,0.3097,19000,26.63541667,0.493975904,46.09999847,4.130000114,24.97999954,37.77999878,3,www.buc.edu,www.buc.edu,33.842295,-117.941323
110097,112200,50700,44500,Biola University,La Mirada,CA,90639-0001,1170,0.7347,4005,2099,4203,2382,1,0.3683,0.6317,53611,NULL,9348,1,0.3168,24844,20.36529372,0.235507246,70.06999969,4.289999962,8.619999886,24.81999969,3,https://www.biola.edu,https://www.biola.edu/undergrad/financial-aid/net-price-calculator#net-price,33.906203,-118.014374
110194,2543400,49600,48400,Brownson Technical School,Anaheim,CA,92805,NULL,NULL,61,NULL,307,NULL,3,0.9836,0.0164,NULL,33678,NULL,NULL,0.759,9500,29.57575758,0.632768362,57.75,3.549999952,12.84000015,40.43000031,1,https://brownson.edu,https://brownson.edu/netprice/npcalc.php,33.819032,-117.905774
110219,716400,36100,31900,Bryan University,Tempe,AZ,85281,NULL,NULL,1075,7,2144,7,1,0.4009,0.5991,23758,NULL,4967,0.1467,0.7041,20000,33.25811209,0.535202864,50.5,11.67000008,11.31999969,39.27999878,2,bryanuniversity.edu,bryanuniversity.edu/about/consumer-info/net-price-calculator/,33.437779,-111.944197
110246,807300,37600,31300,Butte College,Oroville,CA,95965-8399,NULL,NULL,9942,NULL,14144,NULL,2,0.4604,0.5396,11336,NULL,8846,0.2915,0.3987,10500,23.83725366,0.508591065,80.80999756,1.929999948,3.890000105,14.23999977,2,www.butte.edu,https://misweb.cccco.edu/npc/111/npcalc.htm,39.649782,-121.644831
110316,1215400,PrivacySuppressed,PrivacySuppressed,California Institute of Integral Studies,San Francisco,CA,94103,NULL,NULL,61,1391,106,1598,1,0.3934,0.6066,NULL,NULL,8314,0.2906,0.78,18750,34.16470588,PrivacySuppressed,65.11000061,7.590000153,14.65999985,16.39999962,3,www.ciis.edu,https://my.ciis.edu/ICS/Financial_Aid/Forms_and_Resources.jnz?portlet=Budget_Calculator&_ga=2.122314440.273392424.1504792767-1278539770.1487619126,37.774924,-122.416102
110334,112400,40600,33300,Cabrillo College,Aptos,CA,95003,NULL,NULL,10164,NULL,17467,NULL,2,0.4525,0.5475,14848,NULL,8082,0.3978,0.2117,12500,23.97732604,0.507571802,70.05999756,1.639999986,4.210000038,32.52000046,2,www.cabrillo.edu,misweb.cccco.edu/npc/411/npcalc.htm,36.989448,-121.924797
110361,112500,47500,42600,California Baptist University,Riverside,CA,92504-3297,1103,0.7955,7811,2631,8518,3537,1,0.3775,0.6225,44746,NULL,9674,0.3274,0.4602,27000,24.09567021,0.416079812,65.83000183,7.139999866,5.079999924,31.14999962,3,www.calbaptist.edu,https://calbaptist.studentaidcalculator.com/welcome.aspx,33.929321,-117.425619
110370,112700,48000,37200,California College of the Arts,San Francisco,CA,94107-2247,NULL,0.8818,1453,337,1694,477,1,0.3772,0.6228,64030,NULL,9662,0.2121,0.2712,27000,21.54324324,0.244186047,69.11000061,7.96999979,10.72000027,15.56999969,3,www.cca.edu,www.cca.edu/admissions/financialaid/calculator,37.767485,-122.399451
110398,394700,137100,114700,University of California-Hastings College of Law,San Francisco,CA,94102-4978,NULL,NULL,NULL,1002,NULL,1041,1,NULL,NULL,NULL,NULL,17286,0.925,NULL,PrivacySuppressed,PrivacySuppressed,PrivacySuppressed,64.73999786,6.650000095,14.97999954,17.51000023,3,www.uchastings.edu,www.uchastings.edu/fiscal-services/tuition-and-fees/,37.781137,-122.4157
110404,113100,106300,85900,California Institute of Technology,Pasadena,CA,91125,1566,0.0662,948,1285,989,1332,1,0.5464,0.4536,68901,NULL,19993,0.9195,0.1415,11242,19.34782609,PrivacySuppressed,72.12000275,5.519999981,11.39000034,16.25,3,www.caltech.edu,www.finaid.caltech.edu/npc,34.137349,-118.125878
110413,113300,60200,54200,California Lutheran University,Thousand Oaks,CA,91360-2787,1163,0.7147,3054,1324,3286,1688,1,0.4332,0.5668,56491,NULL,9974,1,0.301,21831,22.31310861,0.353858785,74.05999756,3.420000076,6.53000021,22.54999924,3,www.callutheran.edu/,https://www.callutheran.edu/financial-aid/tuition-fees/net-price-calculator.html,34.224566,-118.878924
110422,114300,74300,66900,California Polytechnic State University-San Luis Obispo,San Luis Obispo,CA,93407,1339,0.3017,21047,915,22352,1278,1,0.5165,0.4835,27073,NULL,10335,0.6835,0.1818,19501,20.14106655,0.248062016,73.41000366,3.380000114,8.31000042,20.63999939,3,calpoly.edu,financialaid.calpoly.edu/calculator/npcalc.htm,35.299513,-120.657311
110468,1111700,65200,59500,Alliant International University-San Diego,San Diego,CA,92131,NULL,1,289,2792,2078,3447,1,0.5087,0.4913,34892,NULL,8689,0.8321,0.0402,12563,30.99367089,0.319298246,65.22000122,8.470000267,10.01000023,23.20000076,1,www.alliant.edu,https://www.alliant.edu/net-price-calc/,32.897056,-117.094398
110486,799300,50100,47800,California State University-Bakersfield,Bakersfield,CA,93311-1099,NULL,0.2302,9142,1448,10500,1628,1,0.3855,0.6145,16714,NULL,9585,0.5124,0.6272,16003,23.17431193,0.58172232,60.15999985,7.329999924,4.150000095,38.31999969,3,www.csub.edu,https://www2.calstate.edu/attend/paying-for-college/Pages/csu-costs.aspx,35.350005,-119.104711
110495,115700,48500,45400,California State University-Stanislaus,Turlock,CA,95382-0299,NULL,0.8582,9272,1284,10226,1541,1,0.3403,0.6597,16442,NULL,9475,0.5097,0.6171,14050,23.21042874,0.599456686,64.77999878,3.900000095,6.5,32.99000168,3,https://www.csustan.edu,https://www2.calstate.edu/attend/paying-for-college/Pages/csu-costs.aspx,37.52577,-120.852511
110510,114200,48800,44500,California State University-San Bernardino,San Bernardino,CA,92407-2393,991,0.5483,17704,2271,19495,2791,1,0.3942,0.6058,18522,NULL,9779,0.4812,0.6364,15000,22.73337371,0.596857816,58.13000107,9.720000267,4.71999979,39.58000183,3,www.csusb.edu,https://www2.calstate.edu/attend/paying-for-college/Pages/csu-costs.aspx,34.182622,-117.323801
110529,114400,58000,54000,California State Polytechnic University-Pomona,Pomona,CA,91768,1143,0.5515,24841,1664,25910,2183,1,0.5346,0.4654,21302,NULL,10587,0.4729,0.4881,17050,22.38213583,0.492781664,52.36000061,5.550000191,15.65999985,40.97999954,3,www.cpp.edu,https://www.cpp.edu/~financial-aid/net-price-calculator/npcalc.htm,34.057912,-117.821476
110538,114600,55400,48100,California State University-Chico,Chico,CA,95929-0150,1092,0.6526,16317,1095,18423,1331,1,0.4704,0.5296,23508,NULL,9723,0.5577,0.4589,17000,22.35678392,0.473401298,77.51999664,2.720000029,5.610000134,16.84000015,3,www.csuchico.edu,https://www2.calstate.edu/attend/paying-for-college/Pages/csu-costs.aspx,39.729712,-121.844859
110547,114100,48500,44700,California State University-Dominguez Hills,Carson,CA,90747-0005,NULL,0.6394,13871,2833,14480,3446,1,0.3708,0.6292,14469,NULL,9752,0.405,0.6452,14000,25.30506838,0.590501792,38.25999832,21.18000031,8.930000305,45.47000122,3,https://www.csudh.edu,https://www2.calstate.edu/attend/paying-for-college/Pages/csu-costs.aspx,33.864766,-118.255917
110556,114700,48500,44700,California State University-Fresno,Fresno,CA,93740,1019,0.5753,21732,3012,23662,3589,1,0.411,0.589,16915,NULL,9393,0.5432,0.5954,14974,22.34042089,0.53245174,58.06000137,5.079999924,6.960000038,40.83000183,3,www.fresnostate.edu/,fresnostate.edu/studentaffairs/financialaid/netprice/index.html,36.811154,-119.744569
110565,113700,51800,47200,California State University-Fullerton,Fullerton,CA,92831-3599,1124,0.4341,34637,5420,40621,6537,1,0.4368,0.5632,17645,NULL,10201,0.4861,0.4981,14751,22.85596452,0.494455253,57.77000046,4.269999981,13.78999996,37.38000107,3,www.fullerton.edu,www.fullerton.edu/financialaid/calculator/,33.881506,-117.885446
110574,113800,58200,51700,California State University-East Bay,Hayward,CA,94542,NULL,0.716,12728,2792,15801,3812,1,0.3917,0.6083,21371,NULL,10210,0.4603,0.4672,15125,24.61632176,0.509297521,50.09000015,12.84000015,19.29999924,22.28000069,3,www.csueastbay.edu,www.csueastbay.edu/financialaid/files/images/net-price-calculator/npcalc.htm,37.657694,-122.054135
110583,113900,53000,48100,California State University-Long Beach,Long Beach,CA,90840-0115,1146,0.3121,31503,5776,34141,7080,1,0.4339,0.5661,18306,NULL,10192,0.4856,0.5256,15000,22.63120509,0.486271676,53.66999817,8.31000042,13.07999992,36.70000076,3,www.csulb.edu,https://www2.calstate.edu/attend/paying-for-college/Pages/csu-costs.aspx,33.782818,-118.11204
110592,114000,49900,46100,California State University-Los Angeles,Los Angeles,CA,90032-8506,978,0.4152,24163,3813,25757,4281,1,0.4247,0.5753,14823,NULL,9827,0.4134,0.6871,13750,23.04972376,0.615339372,42.68999863,8.729999542,14.88000011,52.04999924,3,www.calstatela.edu,https://www2.calstate.edu/attend/paying-for-college/Pages/csu-costs.aspx,34.066927,-118.168965
110608,115300,49700,45400,California State University-Northridge,Northridge,CA,91330,1027,0.5063,34911,5161,38245,6394,1,0.4599,0.5401,18870,NULL,10090,0.4546,0.5785,14500,22.68120572,0.538672809,57.36999893,7.889999866,9.460000038,36.79000092,3,https://www.csun.edu,https://www2.calstate.edu/attend/paying-for-college/Pages/csu-costs.aspx,34.240126,-118.529319
110617,115000,54200,48900,California State University-Sacramento,Sacramento,CA,95819-2694,1030,0.6386,28439,3089,31737,3436,1,0.446,0.554,19807,NULL,9804,0.4779,0.5403,15320,23.1948718,0.490483319,64.83999634,7.889999866,10.42000008,19.79999924,3,www.csus.edu,https://www2.calstate.edu/attend/paying-for-college/Pages/csu-costs.aspx,38.559415,-121.423549
110635,131200,79000,64700,University of California-Berkeley,Berkeley,CA,94720,1448,0.1484,30845,11648,32309,11926,1,0.4739,0.5261,36739,NULL,17125,0.6663,0.2676,13478,21.50653739,0.345800525,59.25999832,6.809999943,16.69000053,23.56999969,3,www.berkeley.edu,https://financialaid.berkeley.edu/sites/default/files/docs/FinancialLiteracy/CalcBalance_LiveFields_final.pdf,37.871918,-122.260463
110644,131300,68100,58200,University of California-Davis,Davis,CA,95616-8678,1292,0.4107,30698,7449,32197,7586,1,0.3963,0.6037,35252,NULL,14603,0.866,0.3822,13000,21.20280172,0.408311428,59.13000107,6.519999981,16.95999908,22.31999969,3,ucdavis.edu,myawards.ucdavis.edu/AidEstimator,38.539667,-121.749567
110653,131400,65800,58400,University of California-Irvine,Irvine,CA,92697,1316,0.2876,29722,6296,30865,6305,1,0.4861,0.5139,32985,NULL,15447,0.8146,0.4212,15488,20.45639952,0.439811172,58.40000153,4.369999886,17.73999977,28.70999908,3,www.uci.edu/,www.ofas.uci.edu/content/Calculator.aspx,33.648434,-117.841248
110662,131500,73200,60700,University of California-Los Angeles,Los Angeles,CA,90095-1405,1423,0.1404,31568,12960,33160,13432,1,0.4217,0.5783,33654,NULL,18392,0.6973,0.3382,15000,21.08359271,0.380891393,58.04000092,5.800000191,15.57999992,29.77000046,3,www.ucla.edu/,https://dnn.uclanet.ucla.edu/fas102016/Prospective-Student/Net-Price-Calculator,34.068892,-118.443901
110671,131600,55300,49700,University of California-Riverside,Riverside,CA,92521,1229,0.5057,20574,3341,21540,3367,1,0.4599,0.5401,32843,NULL,13408,0.8655,0.5386,19000,20.26240301,0.483469907,53.90000153,7.039999962,14.40999985,36.54999924,3,www.ucr.edu/,vcsaweb.ucr.edu/FinAidManualCalculator/,33.97246,-117.32741
110680,131700,69600,59900,University of California-San Diego,La Jolla,CA,92093,1372,0.3006,30279,7602,30143,7601,1,0.5018,0.4982,31891,NULL,16373,0.8483,0.3629,16500,20.78065032,0.395708283,60.15000153,4.639999866,16.87000084,26.29000092,3,www.ucsd.edu,fas.ucsd.edu/forms-and-resources/financial-aid-estimator/index.html,32.877749,-117.235866
110699,131900,156800,143700,University of California-San Francisco,San Francisco,CA,94143-0244,NULL,NULL,NULL,3114,NULL,3201,1,NULL,NULL,NULL,NULL,15176,0.5871,NULL,PrivacySuppressed,28.65217391,PrivacySuppressed,60.18000031,6.090000153,20.29000092,17.38999939,3,ucsf.edu,NULL,37.763737,-122.458489
110705,132000,62400,55300,University of California-Santa Barbara,Santa Barbara,CA,93106,1360,0.322,23063,2906,23559,3002,1,0.4559,0.5441,35987,NULL,15994,0.8502,0.3707,15000,20.17647978,0.424005811,63.81999969,4.940000057,10.38000011,30.17000008,3,www.ucsb.edu,finaid.ucsb.edu/net-price-calculator,34.416297,-119.846426
110714,132100,53800,46900,University of California-Santa Cruz,Santa Cruz,CA,95064-1011,1311,0.4737,17792,1908,18534,2058,1,0.516,0.484,35982,NULL,14426,0.767,0.3725,18408,20.45500879,0.367497508,64.81999969,5.079999924,13.02999973,22.87000084,3,www.ucsc.edu/,www2.ucsc.edu/finaidcalc/,36.995584,-122.058801
110778,2267600,NULL,NULL,Sofia University,Palo Alto,CA,94303,NULL,NULL,4,1210,11,627,1,0,1,NULL,NULL,6194,0.5139,0.6364,PrivacySuppressed,PrivacySuppressed,PrivacySuppressed,NULL,NULL,NULL,NULL,3,www.sofia.edu,https://bigfuture.collegeboard.org/pay-for-college/college-costs/college-costs-calculator,37.430325,-122.10866
110875,2065700,PrivacySuppressed,PrivacySuppressed,California Beauty School,Modesto,CA,95354,NULL,NULL,85,NULL,131,NULL,3,0.0118,0.9882,NULL,17857,NULL,NULL,0.4504,4817,25.38461539,0.538461539,70.25,2.650000095,4.21999979,29.69000053,1,www.calbeautycollege.edu,www.calbeautycollege.edu/net-price-calculator,37.645217,-120.99689
110918,884400,PrivacySuppressed,PrivacySuppressed,California Christian College,Fresno,CA,93727,NULL,1,13,NULL,20,NULL,1,0.8462,0.1538,19034,NULL,NULL,NULL,0.6875,PrivacySuppressed,26.33333333,PrivacySuppressed,61.75,6.639999866,7.590000153,31.18000031,3,www.calchristiancollege.edu,www.calchristiancollege.edu/financial-aid/net-price-calculator/,36.749366,-119.711123
110936,4127600,NULL,NULL,California Coast University,Santa Ana,CA,92701,NULL,NULL,0,NULL,NULL,NULL,1,0,0,NULL,NULL,NULL,NULL,NULL,NULL,NULL,NULL,NULL,NULL,NULL,NULL,NULL,https://www.calcoast.edu,https://www.calcoast.edu/net-price-calculator.html,33.753135,-117.86524
111054,1186500,23700,17800,California Hair Design Academy,La Mesa,CA,91942-5055,NULL,NULL,172,NULL,370,NULL,3,0.3372,0.6628,NULL,17403,NULL,NULL,0.4324,5577,26.30111524,0.538834952,67.12999725,7.809999943,7.320000172,24.20000076,1,https://chdaschools.com,https://chdaschools.com/consumer-information/net-price-calculator/,32.765221,-117.024261
111081,113200,50600,37900,California Institute of the Arts,Valencia,CA,91355-2397,NULL,0.2297,1003,496,1098,529,1,0.4526,0.5474,69015,NULL,8825,0.6065,0.2617,27000,21.19205298,0.157342657,70.26000214,7.239999771,7.869999886,21.11000061,3,www.calarts.edu,calarts.edu/financial-aid/net-price-calculator,34.39327,-118.566837
111188,113400,87800,82900,California State University Maritime Academy,Vallejo,CA,94590-8181,NULL,0.6652,1016,29,1110,43,1,0.8337,0.1663,28082,NULL,9824,0.7391,0.2962,24615,21.15920398,0.199475066,69.19999695,5.420000076,11.14999962,16.37000084,3,https://www.csum.edu,https://www2.calstate.edu/attend/paying-for-college/Pages/csu-costs.aspx,38.069061,-122.231551
111391,1310300,96600,78500,California Western School of Law,San Diego,CA,92101-3046,NULL,NULL,NULL,802,NULL,896,1,NULL,NULL,NULL,NULL,11506,0.3895,NULL,PrivacySuppressed,NULL,NULL,75.25,4.78000021,6.829999924,19.44000053,3,https://www.cwsl.edu,https://www.cwsl.edu,32.722192,-117.162416
111434,697300,37900,31500,Canada College,Redwood City,CA,94061-1099,NULL,NULL,4867,NULL,10216,NULL,2,0.369,0.631,10446,NULL,10453,0.4089,0.1122,12955,25.74349882,0.57278481,61.09000015,5.360000134,11.71000004,30.80999947,2,canadacollege.edu,https://misweb.cccco.edu/npc/371/npcalc.htm,37.44877,-122.265398
111461,890300,45800,39400,College of the Canyons,Santa Clarita,CA,91355-1899,NULL,NULL,18649,NULL,32720,NULL,2,0.5526,0.4474,11340,NULL,10205,0.2983,0.1733,9000,23.74817017,0.514626527,68.23000336,5.420000076,6.300000191,30.81999969,2,www.canyons.edu,https://www.canyons.edu/studentservices/financialaid/about/netcalc.php,34.403993,-118.568698
111513,2125000,29200,23200,Career Academy of Beauty,Garden Grove,CA,92845,NULL,NULL,171,NULL,255,NULL,3,0.0058,0.9942,NULL,20162,NULL,NULL,0.5412,6333,26.93625498,0.509259259,61.49000168,3.869999886,13.18000031,32.29999924,1,CAofB.com,caofb.com,33.781018,-118.031697
111638,673100,52400,49600,Casa Loma College-Van Nuys,Van Nuys,CA,91405,NULL,0.913,175,NULL,338,NULL,2,0.3943,0.6057,NULL,28768,6361,1,0.5385,24092,28.55555556,0.529147982,44.79000092,16.32999992,9.81000042,42.65999985,1,https://www.casalomacollege.edu,https://casalomacollege.studentaidcalculator.com/survey.aspx,34.192829,-118.457781
111708,2332809,27600,23800,CET-San Diego,San Diego,CA,92102,NULL,NULL,174,NULL,344,NULL,3,0.7874,0.2126,NULL,22829,NULL,NULL,0.3488,6149,29.4522003,0.692538808,45.72999954,17.87999916,6.260000229,49.29999924,1,https://www.cetweb.edu,https://cetweb.edu/tuition,32.711302,-117.105328
111717,2332800,27600,23800,CET-San Jose,San Jose,CA,95110,NULL,NULL,248,NULL,426,NULL,3,0.5927,0.4073,NULL,21155,NULL,NULL,0.4812,6149,29.4522003,0.692538808,45.72999954,17.87999916,6.260000229,49.29999924,1,https://cetweb.edu,https://cetweb.edu/tuition,37.322723,-121.88698
111726,2332810,27600,23800,CET-El Centro,El Centro,CA,92243,NULL,NULL,230,NULL,396,NULL,3,0.7565,0.2435,NULL,20093,NULL,NULL,0.3864,6149,29.4522003,0.692538808,45.72999954,17.87999916,6.260000229,49.29999924,1,https://cetweb.edu,https://cetweb.edu/tuition,32.790908,-115.549079
111744,2332814,27600,23800,CET-Colton,Colton,CA,92324,NULL,NULL,154,NULL,287,NULL,3,0.9416,0.0584,NULL,20620,NULL,NULL,0.5436,6149,29.4522003,0.692538808,45.72999954,17.87999916,6.260000229,49.29999924,1,https://cetweb.edu,https://cetweb.edu/tuition,34.077381,-117.353488
111762,2332819,27600,23800,CET-Watsonville,Watsonville,CA,95076,NULL,NULL,61,NULL,138,NULL,3,0.4754,0.5246,NULL,14864,NULL,NULL,0.3333,6149,29.4522003,0.692538808,45.72999954,17.87999916,6.260000229,49.29999924,1,https://www.cetweb.edu,https://cetweb.edu/tuition,36.931833,-121.767991
111799,2332813,27600,23800,CET-Salinas,Salinas,CA,93906,NULL,NULL,162,NULL,218,NULL,3,0.1667,0.8333,NULL,20544,NULL,NULL,0.3165,6149,29.4522003,0.692538808,45.72999954,17.87999916,6.260000229,49.29999924,1,https://cetweb.edu,https://cetweb.edu/tuition,36.707333,-121.65236
111887,116100,36600,31900,Cerritos College,Norwalk,CA,90650-6298,NULL,NULL,20368,NULL,28433,NULL,2,0.4891,0.5109,8792,NULL,10471,0.3658,0.4244,9571,23.43049716,0.599349092,42.77000046,10.05000019,8.729999542,60.20000076,2,www.cerritos.edu,https://misweb.cccco.edu/npc/811/npcalc.htm,33.886874,-118.097337
111896,1011100,34600,28000,Cerro Coso Community College,Ridgecrest,CA,93555-9571,NULL,NULL,4890,NULL,9291,NULL,2,0.4683,0.5317,16699,NULL,13354,0.3611,0.1383,PrivacySuppressed,28.15610218,0.512850467,81.23999786,3.880000114,2.75999999,12.64000034,2,cerrocoso.edu,https://misweb.cccco.edu/npc/522/npcalc.htm,35.567525,-117.66767
111920,116200,41300,34600,Chabot College,Hayward,CA,94545,NULL,NULL,12621,NULL,19853,NULL,2,0.4849,0.5151,12068,NULL,9891,0.3813,0.1923,12460,24.52548903,0.555425904,44.59000015,13.75,21.32999992,25.36000061,2,www.chabotcollege.edu,https://misweb.cccco.edu/npc/482/npcalc.htm,37.642458,-122.105636
111939,116300,36700,31500,Chaffey College,Rancho Cucamonga,CA,91737-3002,NULL,NULL,19650,NULL,29808,NULL,2,0.4101,0.5899,16400,NULL,9515,0.2362,0.2867,PrivacySuppressed,24.08009451,0.557763401,52.77999878,10,5.179999828,47.09999847,2,www.chaffey.edu,www.chaffey.edu/finaid/Links.shtml,34.147663,-117.573932
111948,116400,56600,54500,Chapman University,Orange,CA,92866,1288,0.5356,7026,2327,7363,2654,1,0.3911,0.6089,69018,NULL,11826,1,0.1917,20750,19.90277023,0.17877412,69.87000275,4.46999979,7.889999866,24.70999908,3,https://www.chapman.edu,https://www.chapman.edu/students/tuition-and-aid/financial-aid/net-cost-calculator/index.aspx,33.79302,-117.852518
111966,1036500,82700,81900,Charles R Drew University of Medicine and Science,Los Angeles,CA,90059,982,0.3727,163,427,187,616,1,0.3374,0.6626,31311,NULL,8771,0.3178,0.4493,16427,28.51612903,0.47706422,40.83000183,19.13999939,10.40999985,43.27000046,2,www.cdrewu.edu,https://docs.cdrewu.edu/assets//admissions/PriceCalculator.html,33.925658,-118.242791
112075,2070500,50800,46400,Concordia University-Irvine,Irvine,CA,92612-3203,1142,0.6178,1784,2374,2046,3755,1,0.38,0.62,49474,NULL,7215,0.9384,0.279,23230,22.58955224,0.283863369,70.08000183,3.940000057,9.670000076,23.87000084,3,www.cui.edu,www.cui.edu/studentlife/financial-aid/undergraduate/index.aspx?id=21911,33.653665,-117.812305
112084,1203100,42500,36700,San Diego Christian College,Santee,CA,92071,1055,0.6013,448,75,752,113,1,0.5179,0.4821,45605,NULL,6748,0.1118,0.5243,22798,26.78321678,0.408376963,72.33000183,5.059999943,6.349999905,22.89999962,3,sdcc.edu,tcc.noellevitz.com/(S(hbmattx4suq0v45cbos1csf5))/San Diego Christian College/Freshman-Students,32.842404,-116.978112
112127,116500,NULL,NULL,Church Divinity School of the Pacific,Berkeley,CA,94709-1211,NULL,NULL,NULL,87,NULL,107,1,NULL,NULL,NULL,NULL,6872,0.4167,NULL,PrivacySuppressed,NULL,NULL,NULL,NULL,NULL,NULL,3,www.cdsp.edu,www.cdsp.edu,37.876184,-122.261122
112172,116600,36100,30900,Citrus College,Glendora,CA,91741-1899,NULL,NULL,11745,NULL,18733,NULL,2,0.4582,0.5418,11341,NULL,9691,0.3495,0.3112,6761,23.41506482,0.537568901,53.45999908,5.230000019,12.06999969,47.95000076,2,https://www.citruscollege.edu,https://misweb.cccco.edu/npc/821/npcalc.htm,34.135487,-117.885266
112181,2178700,NULL,NULL,Citrus Heights Beauty College,Citrus Heights,CA,95610-1410,NULL,NULL,86,NULL,150,NULL,3,0.0233,0.9767,NULL,16047,NULL,NULL,0.3933,PrivacySuppressed,24.90196078,0.459770115,NULL,NULL,NULL,NULL,1,chbeautycollege.com,chbeautycollegenetpricecalc.com/,38.712951,-121.289529
112190,450200,41800,35100,City College of San Francisco,San Francisco,CA,94112-1898,NULL,NULL,24429,NULL,38862,NULL,2,0.4661,0.5339,10392,NULL,9737,0.4186,0.1293,9813,26.40844112,0.550295858,44.41999817,10.56000042,30.71999931,17.37999916,1,www.ccsf.edu,https://misweb.cccco.edu/npc/361/npcalc.htm,37.725953,-122.451155
112251,116900,71400,67000,Claremont Graduate University,Claremont,CA,91711-6160,NULL,NULL,NULL,1882,NULL,2087,1,NULL,NULL,NULL,NULL,13883,0.8852,NULL,PrivacySuppressed,32.82857143,PrivacySuppressed,69.45999908,6.789999962,7.329999924,24.29000092,3,www.cgu.edu,www.cgu.edu/admissions/cost-aid/financial-calculator/,34.103585,-117.713703
112260,117000,93200,72900,Claremont McKenna College,Claremont,CA,91711-6400,1446,0.0931,1318,3,1343,7,1,0.522,0.478,71745,NULL,14628,0.9243,0.139,15000,19.49765258,PrivacySuppressed,68.77999878,5.460000038,11.67000008,19.57999992,3,www.cmc.edu,https://npc.collegeboard.org/student/app/claremontmckenna,34.102154,-117.711188
112288,2497300,27100,24200,Milan Institute-Visalia,Visalia,CA,93277,NULL,NULL,273,NULL,484,NULL,3,0.0916,0.9084,NULL,23353,NULL,NULL,0.7665,8082,25.73859316,0.670977012,59.86999893,7.5,7.269999981,32.86999893,1,www.milaninstitute.edu,milaninstitute.edu/npc/milan-institute/visalia-california/index.html,36.27164,-119.312151
112367,2309500,36200,34500,Clovis Adult Education,Clovis,CA,93611,NULL,NULL,752,NULL,819,NULL,3,0.1184,0.8816,NULL,19543,NULL,NULL,0.1697,PrivacySuppressed,29.57317073,0.603448276,56.63000107,5.349999905,8.380000114,39.50999832,1,clovisadult.cusd.com,www.clovisadulteducation.com,36.834459,-119.690369
112385,2063500,43100,35100,Coastline Community College,Fountain Valley,CA,92708-2597,NULL,NULL,9459,NULL,20123,NULL,2,0.5797,0.4203,16173,NULL,10579,0.1818,0.1266,9500,31.95759234,0.554902847,56.93999863,4.760000229,17.96999931,29.20999908,2,www.coastline.edu,https://misweb.cccco.edu/npc/831/npcalc.htm,33.715634,-117.929143
112394,117700,60400,49800,Cogswell College,San Jose,CA,95134,NULL,0.5787,589,4,692,NULL,1,0.6944,0.3056,35351,NULL,7404,0.2472,0.461,31000,21.33219178,0.279069767,65.93000031,3.269999981,17.30999947,17.67000008,3,www.cogswell.edu,https://cogswell.edu/admission/financial-aid/,37.414049,-121.94087
112455,3577300,23500,19000,Coba Academy,Anaheim,CA,92801,NULL,NULL,90,NULL,115,NULL,3,0.2,0.8,NULL,21503,NULL,NULL,0.6,7917,24.09090909,0.465517241,61.83000183,2.470000029,12.97000027,35.70999908,1,www.coba.edu,https://coba.edu/NetPrice/npcalc.htm,33.841141,-117.943108
112525,2482700,108100,106100,Western University of Health Sciences,Pomona,CA,91766-1854,NULL,NULL,NULL,3833,NULL,3861,1,NULL,NULL,NULL,NULL,10741,0.8323,NULL,PrivacySuppressed,NULL,NULL,58.33000183,5.289999962,13.64999962,33.41999817,3,www.westernu.edu,www.westernu.edu/financial-budgets,34.058092,-117.747732
112561,770700,33600,27300,Columbia College,Sonora,CA,95370,NULL,NULL,2180,NULL,3605,NULL,2,0.4546,0.5454,13314,NULL,8902,0.4365,0.3014,PrivacySuppressed,26.43215507,0.534120735,86.83999634,2.170000076,1.629999995,10.34000015,2,www.gocolumbia.edu/,https://misweb.cccco.edu/npc/591/npcalc.htm,38.030367,-120.388385
112570,2110200,39500,31400,Columbia College Hollywood,Tarzana,CA,91356-1411,NULL,NULL,540,NULL,631,NULL,1,0.5426,0.4574,40386,NULL,5833,0.0875,0.4204,19901,21.17567568,0.295336788,70.13999939,9.239999771,6.170000076,20.30999947,3,https://www.columbiacollege.edu,https://columbiacollege.studentaidcalculator.com/survey.aspx,34.17972,-118.538793
112686,119701,36900,31800,Compton College,Compton,CA,90221-5393,NULL,NULL,5605,NULL,12108,NULL,2,0.3558,0.6442,14999,NULL,8965,0.3673,0.254,PrivacySuppressed,23.45823559,0.565500289,25.70999908,30.65999985,4.599999905,53.88000107,2,www.compton.edu,https://misweb.cccco.edu/npc/721/npcalc.htm,33.878226,-118.209463
112826,119000,38900,33200,Contra Costa College,San Pablo,CA,94806-3195,NULL,NULL,5702,NULL,10505,NULL,2,0.3895,0.6105,13262,NULL,9078,0.3322,0.2344,PrivacySuppressed,26.13724435,0.557763061,39.08000183,25.23999977,15.63000011,25.11000061,2,https://www.contracosta.edu,https://misweb.cccco.edu/npc/311/npcalc.htm,37.969381,-122.337377
113096,753600,34900,29700,Cosumnes River College,Sacramento,CA,95823-5799,NULL,NULL,13045,NULL,20320,NULL,2,0.4406,0.5594,11790,NULL,8376,0.4295,0.2628,9626,25.29694775,0.513391304,52.47000122,13.42000008,16.57999992,18.68000031,2,https://www.crc.losrios.edu,https://www.crc.losrios.edu/students/netpricecalc,38.45295,-121.423108
113111,927200,39000,33000,Crafton Hills College,Yucaipa,CA,92339-1799,NULL,NULL,5661,NULL,8833,NULL,2,0.4443,0.5557,21636,NULL,9425,0.158,0.1486,PrivacySuppressed,23.03933434,0.568097015,69.16999817,6.199999809,4.570000172,28.05999947,2,www.craftonhills.edu,https://misweb.cccco.edu/npc/981/npcalc.htm,34.039178,-117.101173
113193,119200,42100,35600,Cuesta College,San Luis Obispo,CA,93403-8106,NULL,NULL,7853,NULL,15212,NULL,2,0.4675,0.5325,15922,NULL,8946,0.345,0.2063,10500,25.20699589,0.428571429,81.23000336,2.480000019,3.609999895,17.93000031,2,https://www.cuesta.edu,https://misweb.cccco.edu/npc/641/npcalc.htm,35.331276,-120.742235
113218,2111300,33300,29000,Cuyamaca College,El Cajon,CA,92019,NULL,NULL,7412,NULL,13951,NULL,2,0.4517,0.5483,10250,NULL,7339,0.2917,0.2837,PrivacySuppressed,29.28817649,0.610113422,71.22000122,6.96999979,5.179999828,21.65999985,2,www.cuyamaca.edu,https://misweb.cccco.edu/npc/021/npcalc.htm,32.744954,-116.943507
113236,119300,41100,35600,Cypress College,Cypress,CA,90630-5897,NULL,NULL,14068,NULL,21471,NULL,1,0.434,0.566,11828,NULL,11603,0.3879,0.2766,8740,23.84943243,0.535883831,52.45999908,5.380000114,16.79999924,37.86999893,2,www.cypresscollege.edu,www.cypresscollege.edu/NetPriceCalculator/npcalc.htm,33.82833,-118.025143
113333,448000,50200,41700,De Anza College,Cupertino,CA,95014,NULL,NULL,17325,NULL,30817,NULL,2,0.5111,0.4889,11267,NULL,9179,0.3714,0.1754,8000,22.93180723,0.520590043,49.97999954,3.50999999,28.87999916,23.35000038,2,www.deanza.edu/,https://misweb.cccco.edu/npc/421/npcalc.htm,37.320788,-122.045558
113449,3964400,PrivacySuppressed,PrivacySuppressed,International School of Beauty Inc,Palm Desert,CA,92260-2740,NULL,NULL,127,NULL,253,NULL,3,0.2362,0.7638,NULL,17240,NULL,NULL,0.6047,7185,27.35714286,0.651933702,NULL,NULL,NULL,NULL,1,https://btyschool.com/,btyschool.com/tution/,33.729555,-116.403928
113537,3025600,PrivacySuppressed,PrivacySuppressed,Dell'Arte International School of Physical Theatre,Blue Lake,CA,95525-0816,NULL,NULL,10,20,23,14,1,0.2,0.8,NULL,NULL,2228,NULL,0,PrivacySuppressed,PrivacySuppressed,PrivacySuppressed,72.20999908,12.05000019,3.700000048,15.19999981,1,www.dellarte.com/school,https://www.dellarte.com/school-of-physical-theatre/tuition/,40.880924,-123.988808
113573,118200,36700,30600,College of the Desert,Palm Desert,CA,92260,NULL,NULL,10418,NULL,14142,NULL,2,0.44,0.56,16693,NULL,9826,0.2906,0.4039,PrivacySuppressed,23.9755142,0.621286321,62.70999908,3.089999914,2.170000076,51.36000061,2,www.collegeofthedesert.edu,https://misweb.cccco.edu/npc/931/npcalc.htm,33.732108,-116.388271
113582,2298000,42300,36800,Design Institute of San Diego,San Diego,CA,92121,NULL,0.5882,98,NULL,159,NULL,1,0.102,0.898,41056,NULL,5278,NULL,0.3968,42082,26.63235294,PrivacySuppressed,73.08000183,4.610000134,7.570000172,20.76000023,3,www.disd.edu,https://disd.studentaidcalculator.com/survey.aspx,32.880926,-117.167374
113634,119100,47800,37600,Diablo Valley College,Pleasant Hill,CA,94523,NULL,NULL,18327,NULL,29855,NULL,2,0.4905,0.5095,11553,NULL,9234,0.3381,0.1678,5019,24.93876405,0.453183521,66,8.300000191,11.51000023,17.29999924,2,https://www.dvc.edu,https://misweb.cccco.edu/npc/312/npcalc.htm,37.968516,-122.073142
113698,119600,63600,55600,Dominican University of California,San Rafael,CA,94901-2298,1126,0.8717,1264,424,1415,526,1,0.2437,0.7563,63875,NULL,8662,0.3285,0.2965,27000,21.48295455,0.306122449,65.73000336,6.199999809,12.89000034,18.92000008,3,https://www.dominican.edu,https://www.dominican.edu/admissions/aid/net-price-calculator-npc,37.981279,-122.512051
113704,129600,NULL,NULL,Dominican School of Philosophy & Theology,Berkeley,CA,94708-1816,NULL,NULL,NULL,57,NULL,71,1,NULL,NULL,NULL,NULL,3117,0.75,NULL,PrivacySuppressed,NULL,NULL,NULL,NULL,NULL,NULL,3,https://www.dspt.edu,https://www.dspt.edu/tuition-and-fees,37.881099,-122.264612
113856,2226000,36100,31300,East Los Angeles College,Monterey Park,CA,91754-6099,NULL,NULL,30975,NULL,57381,NULL,2,0.5206,0.4794,15837,NULL,9499,0.3327,0.2336,10000,23.33130699,0.685203189,36.25,4.829999924,14.21000004,72.41999817,1,www.elac.edu/,https://misweb.cccco.edu/npc/748/npcalc.htm,34.040531,-118.148785
113980,119700,36900,31800,El Camino Community College District,Torrance,CA,90506,NULL,NULL,21292,NULL,33616,NULL,2,0.4835,0.5165,16682,NULL,10926,0.3562,0.2815,PrivacySuppressed,23.45823559,0.565500289,32.38000107,26.65999985,9.069999695,44.63999939,2,www.elcamino.edu,www.finaid.org/calculators/studentbudget.phtml,33.885229,-118.329913
114044,2091200,24300,19100,Elegance International,Hollywood,CA,90028,NULL,NULL,256,NULL,501,NULL,3,0.0742,0.9258,NULL,29849,NULL,NULL,0.6327,10150,24.77868853,0.471238938,49.83000183,11.14000034,10.64000034,41.77999878,1,ei.edu/,https://www.ei.edu/net-price-calculator/npcalc.htm,34.098445,-118.338111
114114,2609000,NULL,NULL,Emperor's College of Traditional Oriental Medicine,Santa Monica,CA,90403,NULL,NULL,NULL,189,NULL,283,1,NULL,NULL,NULL,NULL,NULL,NULL,NULL,PrivacySuppressed,NULL,NULL,NULL,NULL,NULL,NULL,3,www.emperors.edu,NULL,34.030438,-118.485119
114123,903200,33700,33300,Empire College,Santa Rosa,CA,95403-2126,NULL,NULL,329,71,476,107,1,0.1489,0.8511,NULL,25842,4586,0.2727,0.5084,14167,27.30263158,0.532110092,79.26000214,1.710000038,3.420000076,18.86000061,1,www.empcol.edu,https://empcol.edu/files/empire/GE2017/NetPriceCalculator/npcalc.htm,38.468052,-122.729337
114266,1245200,44100,36600,Evergreen Valley College,San Jose,CA,95135-1598,NULL,NULL,7865,NULL,14665,NULL,2,0.4516,0.5484,18625,NULL,11971,0.3184,0.2802,8000,26.27067977,0.637315271,37.29000092,4.039999962,32.13000107,36.52000046,2,www.evc.edu,https://misweb.cccco.edu/npc/471/npcalc.htm,37.30167,-121.76561
114354,1111200,42400,37200,FIDM-Fashion Institute of Design & Merchandising-Los Angeles,Los Angeles,CA,90015-1421,NULL,0.5193,2198,6,3029,18,1,0.1397,0.8603,49961,NULL,2678,0.4021,0.2915,14167,21.5184953,0.301587302,65.45999908,6.440000057,10.59000015,24.68000031,2,www.fidm.edu,https://npc.collegeboard.org/student/app/fidm,34.044209,-118.25993
114390,1111202,42400,37200,FIDM-Fashion Institute of Design & Merchandising-San Francisco,San Francisco,CA,94108-5805,NULL,0.4615,218,NULL,328,NULL,1,0.1468,0.8532,45546,NULL,2346,0.25,0.3118,14167,21.5184953,0.301587302,65.45999908,6.440000057,10.59000015,24.68000031,2,WWW.FIDM.EDU,https://npc.collegeboard.org/student/app/fidm,37.786353,-122.406651
114415,1111203,42400,37200,FIDM-Fashion Institute of Design & Merchandising-Orange County,Irvine,CA,92614-5610,NULL,0.6667,64,NULL,95,NULL,2,0.125,0.875,45416,NULL,NULL,NULL,0.3803,14167,21.5184953,0.301587302,65.45999908,6.440000057,10.59000015,24.68000031,2,www.FIDM.edu,https://npc.collegeboard.org/student/app/fidm,33.691963,-117.852254
114433,859700,34600,29100,Feather River Community College District,Quincy,CA,95971-9124,NULL,NULL,1275,NULL,3765,NULL,1,0.6102,0.3898,15404,NULL,8177,0.1969,0.1525,11000,23.13062099,0.484337349,82.72000122,2.640000105,4.039999962,10,2,www.frc.edu,https://misweb.cccco.edu/npc/121/npcalc.htm,39.953101,-120.973067
114460,725300,32200,25900,Federico Beauty Institute,Sacramento,CA,95834,NULL,NULL,346,NULL,463,NULL,3,0.1792,0.8208,NULL,19467,NULL,NULL,0.5248,6333,25.38190955,0.471153846,69.58999634,6.519999981,8.909999847,17.05999947,1,federico.edu,www.federico.edu/disclosures,38.64883,-121.497761
114549,2096100,NULL,NULL,Fielding Graduate University,Santa Barbara,CA,93105-3538,NULL,NULL,NULL,989,NULL,1365,1,NULL,NULL,NULL,NULL,6801,0.4345,NULL,PrivacySuppressed,NULL,NULL,PrivacySuppressed,PrivacySuppressed,PrivacySuppressed,PrivacySuppressed,3,www.fielding.edu,www.fielding.edu/how-to-apply/tuition-financial-aid/,34.42941,-119.717161
114585,3131300,PrivacySuppressed,PrivacySuppressed,Five Branches University,Santa Cruz,CA,95062,NULL,NULL,NULL,324,NULL,415,1,NULL,NULL,NULL,NULL,4348,0.0476,NULL,PrivacySuppressed,PrivacySuppressed,PrivacySuppressed,75.70999908,3.480000019,8.319999695,13.60000038,3,www.fivebranches.edu,www.fivebranches.edu,36.964348,-121.998245
114637,720900,NULL,NULL,Redondo Beach Beauty College,Redondo Beach,CA,90278-3111,NULL,NULL,115,NULL,115,NULL,3,0.087,0.913,NULL,15628,NULL,NULL,0.2783,PrivacySuppressed,31.525,PrivacySuppressed,NULL,NULL,NULL,NULL,1,rbbeautycollege.com,rbbeautycollege.com,33.873098,-118.372137
114716,119900,58300,46500,Foothill College,Los Altos Hills,CA,94022,NULL,NULL,13228,NULL,30736,NULL,1,0.5167,0.4833,11415,NULL,9294,0.308,0.0808,9500,25.27622595,0.498857578,59.38000107,4.829999924,20.20000076,20.30999947,2,https://foothill.edu,https://misweb.cccco.edu/npc/422/npcalc.htm,37.361655,-122.127964
114734,1179200,NULL,NULL,Franciscan School of Theology,Oceanside,CA,92057,NULL,NULL,NULL,47,NULL,55,1,NULL,NULL,NULL,NULL,7353,NULL,NULL,NULL,NULL,NULL,NULL,NULL,NULL,NULL,NULL,www.fst.edu,www.fst.edu/future-students/tuition-and-fees/,33.232416,-117.320066
114761,2230900,20200,17400,Fredrick and Charles Beauty College,Eureka,CA,95501,NULL,NULL,57,NULL,102,NULL,3,0.0526,0.9474,NULL,17742,NULL,NULL,0.5098,PrivacySuppressed,25.68852459,PrivacySuppressed,86.26000214,0.910000026,1.809999943,7.699999809,1,www.fandcbeauty.com,www.fandcbeauty.com,40.798885,-124.164986
114789,130700,33200,28000,Fresno City College,Fresno,CA,93741,NULL,NULL,20888,NULL,36000,NULL,2,0.4559,0.5441,9903,NULL,9430,0.3782,0.3526,4500,23.22880172,0.522885101,51.49000168,6.75,9.270000458,43.49000168,2,www.fresnocitycollege.edu,https://misweb.cccco.edu/npc/571/npcalc.htm,36.768164,-119.796096
114813,125300,45600,43900,Fresno Pacific University,Fresno,CA,93702-4709,1053,0.8511,2888,1386,3503,1633,1,0.2718,0.7282,40950,NULL,7166,0.906,0.6062,23000,28.67353952,0.465763195,61.52999878,4.110000134,5.590000153,39.65000153,3,www.fresno.edu,https://tcc.noellevitz.com/(S(2udqcz4v5juwacioemspbydx))/Fresno%20Pacific%20University/Freshman%20Students,36.726831,-119.735199
114840,120000,PrivacySuppressed,PrivacySuppressed,Fuller Theological Seminary,Pasadena,CA,91182,NULL,NULL,NULL,2361,NULL,3548,1,NULL,NULL,NULL,NULL,7722,0.9053,NULL,PrivacySuppressed,PrivacySuppressed,PrivacySuppressed,62.86000061,9.350000381,11.07999992,23.28000069,3,www.fuller.edu,fuller.edu/paying-for-grad-school/,34.14778,-118.140261
114859,120100,38500,33400,Fullerton College,Fullerton,CA,92832-2095,NULL,NULL,20260,NULL,33076,NULL,2,0.4761,0.5239,11472,NULL,11454,0.4101,0.242,PrivacySuppressed,22.97108503,0.532743036,57.56999969,3.460000038,13.11999989,40.52000046,2,www.fullcoll.edu,https://misweb.cccco.edu/npc/862/npcalc.htm,33.875514,-117.918255
114938,120200,37000,30400,Gavilan College,Gilroy,CA,95020,NULL,NULL,4656,NULL,8142,NULL,2,0.4764,0.5236,11478,NULL,10119,0.2492,0.2405,9000,23.7534626,0.5640553,63.02999878,1.690000057,5.480000019,44.41999817,1,https://www.gavilan.edu,https://www.gavilan.edu/finaid/1819_cost_estimates.php,36.972627,-121.569842
114947,2231900,50100,46500,Gemological Institute of America-Carlsbad,Carlsbad,CA,92008,NULL,NULL,197,NULL,390,NULL,3,0.4772,0.5228,NULL,35363,NULL,NULL,0.0821,PrivacySuppressed,29.03968254,0.333333333,76.16000366,7.570000172,5.900000095,15.47000027,1,www.gia.edu/gem-education,www.gia.edu/net-price-calculator,33.131313,-117.318765
115001,120300,41100,33200,Glendale Community College,Glendale,CA,91208-2894,NULL,NULL,12570,NULL,20242,NULL,2,0.4498,0.5502,11239,NULL,9555,0.2899,0.3557,8000,27.10962145,0.601828967,57.43000031,2.890000105,14.40999985,31.89999962,2,www.glendale.edu,https://misweb.cccco.edu/npc/731/npcalc.htm,34.16745,-118.227666
115010,2338500,32300,28900,Glendale Career College,Glendale,CA,91203,NULL,NULL,600,NULL,874,NULL,2,0.2267,0.7733,NULL,39423,3949,0.1579,0.6396,9500,28.02141328,0.551724138,60.11999893,7.670000076,9.270000458,33.54999924,1,www.success.edu,nw.edu/ecamp/npc-nwc/npcalc.htm,34.149771,-118.254719
