ADM_RATE,AGE_ENTRY,AVGFACSAL,CITY,COSTT4_A,COSTT4_P,FIRST_GEN,G12MN,GRAD_DEBT_MDN,GRADS,ICLEVEL,INSTNM,INSTURL,LATITUDE,LONGITUDE,MD_EARN_WNE_P10,MN_EARN_WNE_P10,NPCURL,OPEID,PCT_ASIAN,PCT_BLACK,PCT_HISPANIC,PCT_WHITE,PCTPELL,PFTFAC,SAT_AVG,SCH_DEG,STABBR,UG12MN,UGDS,UGDS_MEN,UGDS_WOMEN,UNITID,ZIP,date
0.8986,20.28374137,7101,Normal,22489,NULL,0.365828092,1165,34500,963,1,Alabama A & M University,www.aamu.edu/,34.783368,-86.568502,31000,35500,www.aamu.edu/admissions-aid/tuition-fees/net-price-calculator.html,100200,1.480000019,47.97999954,3.789999962,46.84000015,0.7067,0.7411,957,3,AL,5343,4990,0.4076,0.5924,100654,35762,2020-06-01
0.9211,23.60797466,10717,Birmingham,24347,NULL,0.341223671,10498,22500,8087,1,University of Alabama at Birmingham,https://www.uab.edu,33.505697,-86.799345,41200,48400,https://uab.studentaidcalculator.com/survey.aspx,105200,1.100000024,27.76000023,2.029999971,69.01999664,0.3632,0.7766,1220,3,AL,14445,13186,0.393,0.607,100663,35294-0110,2020-06-01
NULL,33.6722973,4292,Montgomery,17680,NULL,0.5125,527,25002,404,1,Amridge University,www.amridgeuniversity.edu,32.362609,-86.17401,39600,47600,www2.amridgeuniversity.edu:9091/,2503400,1.289999962,22.53000069,6.940000057,70.87999725,0.7673,1,NULL,3,AL,440,351,0.3191,0.6809,100690,36117-3553,2020-06-01
0.8087,22.72791963,9442,Huntsville,23441,NULL,0.310132159,2443,22021,2065,1,University of Alabama in Huntsville,www.uah.edu,34.724557,-86.640449,46700,52000,finaid.uah.edu/,105500,1.419999957,18.97999954,2.549999952,76.37999725,0.2698,0.6544,1314,3,AL,8145,7458,0.5796,0.4204,100706,35899,2020-06-01
0.9774,20.13099042,7754,Montgomery,21476,NULL,0.343434343,642,32637,510,1,Alabama State University,www.alasu.edu,32.364317,-86.295677,27700,30600,www.alasu.edu/cost-aid/tuition-costs/net-price-calculator,100500,1.409999967,52.31999969,4.090000153,42.68999863,0.7448,0.5826,972,3,AL,4732,3903,0.371,0.629,100724,36104-0271,2020-06-01
0.5906,21.1377014,10225,Tuscaloosa,29424,NULL,0.225712689,6331,23250,5362,1,The University of Alabama,www.ua.edu/,33.211875,-87.545978,44500,51600,financialaid.ua.edu/net-price-calculator/,105100,1.200000048,21.05999947,2.410000086,75.34999847,0.1802,0.7454,1252,3,AL,36237,32177,0.4443,0.5557,100751,35487-0100,2020-06-01
NULL,23.07102804,6291,Alexander City,8824,NULL,0.549676026,NULL,12447,NULL,2,Central Alabama Community College,www.cacc.edu,32.92478,-85.945266,27700,32400,https://www.cacc.edu/net-price-calculator/,100700,0.219999999,26.89999962,1.00999999,71.51000214,0.4381,0.3966,NULL,2,AL,2417,1211,0.4154,0.5846,100760,35010,2020-06-01
NULL,30.38476563,8538,Athens,NULL,NULL,0.477496484,165,18750,159,1,Athens State University,www.athens.edu,34.806793,-86.964698,38700,42400,www.athens.edu/financial-aid/net-price-calculator/,100800,0.649999976,12.26000023,2.400000095,83.88999939,0.4223,0.4601,NULL,3,AL,3947,2732,0.3086,0.6914,100812,35611,2020-06-01
0.9281,22.19980411,7678,Montgomery,18291,NULL,0.38189609,787,25000,579,1,Auburn University at Montgomery,www.aum.edu,32.36736,-86.177544,33300,38000,www.aum.edu/current-students/financial-information/net-price-calculator,831000,0.910000026,37.20999908,1.620000005,59.97000122,0.4584,0.9655,1084,3,AL,5246,4529,0.348,0.652,100830,36117-3596,2020-06-01
0.7543,20.51679587,10428,Auburn,31282,NULL,0.172647119,6650,21000,5812,1,Auburn University,www.auburn.edu,32.599378,-85.488258,48800,56300,https://www.auburn.edu/admissions/costcalc/freshman.html,100900,1.649999976,19.79999924,2.890000105,75.90000153,0.1537,0.8553,1289,3,AL,25195,24147,0.5115,0.4885,100858,36849,2020-06-01
0.5666,19.64479638,7688,Birmingham,52176,NULL,0.172494173,NULL,26000,NULL,1,Birmingham-Southern College,www.bsc.edu/,33.513774,-86.850552,46700,53100,www.bsc.edu/fp/np-calculator.cfm,101200,1.389999986,17.40999985,2.460000038,78.90000153,0.2214,0.6667,1232,3,AL,1316,1265,0.4791,0.5209,100937,35254,2020-06-01
NULL,24.81025641,6113,Phenix City,8750,NULL,0.430267062,NULL,10655,NULL,2,Chattahoochee Valley Community College,www.cv.edu,32.42391,-85.031485,28900,31300,www.cv.edu/about/consumer-information/,1218200,0.850000024,38.68000031,2.859999895,57.52999878,0.5463,0.3679,NULL,2,AL,2020,1446,0.3921,0.6079,101028,36869,2020-06-01
NULL,30.00184319,5304,Montgomery,29309,NULL,0.472288337,125,25084,69,1,South University-Montgomery,"www.southuniversity.edu/montgomery#location=Montgomery,%20AL",32.342684,-86.216488,33400,40200,www.southuniversity.edu/montgomery/net-price-calculator,1303906,1.74000001,28.55999947,6.610000134,65.22000122,0.645,0.1467,NULL,3,AL,561,321,0.2305,0.7695,101116,36116,2020-06-01
NULL,23.94881517,6335,Enterprise,9262,NULL,0.421891605,NULL,7957,NULL,2,Enterprise State Community College,www.escc.edu,31.297496,-85.836956,31800,42700,https://www.escc.edu/netprice/npcalc.htm,101500,1.200000048,21.04999924,3.25999999,74.08000183,0.4207,0.4505,NULL,2,AL,2461,1269,0.5059,0.4941,101143,36330-1300,2020-06-01
NULL,23.5010648,6343,Bay Minette,12008,NULL,0.43511965,NULL,11000,NULL,2,Coastal Alabama Community College,www.coastalalabama.edu,30.851343,-87.778193,29100,33900,www.coastalalabama.edu/about/consumer_information/net_price_calculator/,106000,0.769999981,20.29999924,1.559999943,76.16999817,0.3696,0.6087,NULL,2,AL,8415,5494,0.3973,0.6027,101161,36507-2698,2020-06-01
0.5227,28.26047565,5743,Montgomery,33944,NULL,0.430031949,886,24000,750,1,Faulkner University,www.faulkner.edu,32.384181,-86.21641,35400,40700,www.faulkner.edu/net-price-calculator/,100300,1.049999952,31.88999939,1.809999943,64.87999725,0.4888,0.4534,1069,3,AL,3250,2079,0.4045,0.5955,101189,36109-3390,2020-06-01
NULL,23.64507772,6433,Gadsden,10098,NULL,0.514954486,NULL,PrivacySuppressed,NULL,2,Gadsden State Community College,www.gadsdenstate.edu,33.994001,-85.991438,26700,30200,www.gadsdenstate.edu/admissions-aid/net-price-calculator.cms,101700,0.449999988,16.82999992,2.170000076,80.38999939,0.4943,0.468,NULL,1,AL,6790,4147,0.3815,0.6185,101240,35903,2020-06-01
NULL,23.46017699,NULL,Albertville,NULL,14301,0.5,NULL,6478,NULL,3,New Beginning College of Cosmetology,www.nbccosmetology.com,34.27871,-86.196931,NULL,NULL,nbccosmetology.com/wp-content/themes/nbc/nbc_zonemap/,4187200,NULL,NULL,NULL,NULL,0.7372,NULL,NULL,1,AL,137,83,0.012,0.988,101277,35951,2020-06-01
NULL,23.86608376,5991,Dothan,9564,NULL,0.485153765,NULL,PrivacySuppressed,NULL,2,George C Wallace Community College-Dothan,www.wallace.edu,31.315274,-85.465836,24700,29800,www.wallace.edu/net_price_calculator.aspx,101800,0.579999983,27.76000023,1.919999957,69.33000183,0.4934,0.5844,NULL,2,AL,6237,3746,0.3251,0.6749,101286,36303-9234,2020-06-01
NULL,23.44760433,5878,Hanceville,10252,NULL,0.498813157,NULL,10500,NULL,2,George C Wallace State Community College-Hanceville,www.wallacestate.edu,34.072439,-86.781935,32200,34800,www.wallacestate.edu/Financial-Aid/Net-Price-Calculator,787100,0.319999993,6.619999886,2.549999952,90.56999969,0.4844,0.3839,NULL,2,AL,7300,4569,0.3489,0.6511,101295,35077-2000,2020-06-01
NULL,22.87099567,5016,Selma,13788,NULL,0.512588117,NULL,PrivacySuppressed,NULL,2,George C Wallace State Community College-Selma,www.wccs.edu,32.445917,-87.013294,23300,27300,img.wccs.edu/files/finaid/NetPriceCalculator%20(6)/npcalc.htm,569900,0.330000013,55.31999969,1.110000014,43.15000153,0.6689,0.541,NULL,2,AL,2486,1104,0.3451,0.6549,101301,36703-2808,2020-06-01
0.95,31.28994083,5988,Birmingham,26128,NULL,0.520903265,26,23366,20,1,Herzing University-Birmingham,https://www.herzing.edu/,33.468466,-86.832465,37800,41600,https://www.herzing.edu/tuition-financial-aid/net-price-calculator,962107,0.709999979,47.15999985,1.679999948,50.38000107,0.637,0.5556,NULL,2,AL,1019,544,0.2132,0.7868,101365,35209,2020-06-01
0.5841,23.01775148,6810,Montgomery,35685,NULL,0.3456,NULL,26805,NULL,1,Huntingdon College,www.huntingdon.edu,32.351034,-86.284366,39900,43600,hawk.huntingdon.edu/oiac/netpricecalculator/index.html,101900,0.930000007,23.67000008,1.909999967,73.19999695,0.441,0.5714,1100,3,AL,1249,1078,0.5056,0.4944,101435,36106-2148,2020-06-01
NULL,28.72,4681,Florence,NULL,NULL,PrivacySuppressed,39,PrivacySuppressed,27,1,Heritage Christian University,www.hcu.edu,34.856153,-87.663051,PrivacySuppressed,PrivacySuppressed,www.hcu.edu/netpricecalculator/,2199700,0.810000002,15.03999996,4.360000134,80.48000336,0.5517,1,NULL,3,AL,66,49,0.9796,0.0204,101453,35630-9977,2020-06-01
NULL,27.25490196,6096,Huntsville,11123,NULL,0.589965398,NULL,PrivacySuppressed,NULL,2,J. F. Drake State Community and Technical College,https://www.drakestate.edu,34.771858,-86.572885,23800,27600,https://www.drakestate.edu/Content/Uploads/Drake%20State%20Community%20College/files/Admissions/net%20price%20calculator.html,526000,1.299999952,33.29000092,2.180000067,61.99000168,0.613,0.4462,NULL,1,AL,1088,678,0.4528,0.5472,101462,35811,2020-06-01
NULL,36.40366973,5597,Deatsville,5580,NULL,0.491803279,NULL,NULL,NULL,2,J F Ingram State Technical College,www.istc.edu,32.582312,-86.392369,NULL,NULL,istc.edu/NetPrice/,3002500,NULL,NULL,NULL,NULL,0.2205,0.9825,NULL,NULL,AL,833,443,0.7359,0.2641,101471,36022,2020-06-01
0.543,22.62058319,7122,Jacksonville,20050,NULL,0.36377025,1444,25000,1158,1,Jacksonville State University,www.jsu.edu/,33.822938,-85.765321,35800,38100,www.jsu.edu/finaid/,102000,0.670000017,19.70000076,2.660000086,76.95999908,0.3882,0.675,1135,3,AL,8735,6394,0.421,0.579,101480,36265,2020-06-01
NULL,24.41823588,6676,Birmingham,13284,NULL,0.450290778,NULL,9000,NULL,2,Jefferson State Community College,www.jeffersonstate.edu/,33.652535,-86.707233,30600,33800,www.jeffersonstate.edu/financial-aid/net-price-calculator/,102200,0.800000012,26.69000053,1.809999943,70.63999939,0.2922,0.3162,NULL,2,AL,13608,6937,0.3862,0.6138,101505,35215-3098,2020-06-01
NULL,23.85665216,6559,Tanner,9848,NULL,0.455343703,NULL,11750,NULL,2,John C Calhoun State Community College,https://calhoun.edu,34.645844,-86.949674,28000,32200,https://calhoun.edu/student-services/financial-aid/net-price-calculator/,101300,1.149999976,19.37000084,2.549999952,75.84999847,0.323,0.3197,NULL,2,AL,15261,8270,0.4582,0.5418,101514,35671,2020-06-01
0.482,28.40648379,6076,Marion,31735,NULL,0.413793103,NULL,23500,NULL,1,Judson College,www.judson.edu,32.629253,-87.315206,26100,29300,www.judson.edu/net-price-calculator/,102300,0.569999993,24.63999939,2.700000048,72.30000305,0.5302,0.3678,1054,3,AL,397,259,0.0077,0.9923,101541,36756,2020-06-01
NULL,23.38402889,6337,Birmingham,13735,NULL,0.474723158,NULL,PrivacySuppressed,NULL,2,Lawson State Community College,www.lawsonstate.edu,33.450814,-86.888844,23400,26600,www.lawsonstate.edu/disclosure_and_consumer_information/general_institutional_information/net_price_calculator.aspx,105900,0.479999989,64.48999786,1.379999995,33.52000046,0.6804,0.4107,NULL,1,AL,4736,2959,0.4018,0.5982,101569,35221-1717,2020-06-01
0.3966,22.25948276,6461,Livingston,20692,NULL,0.403210576,4218,26663,3046,1,University of West Alabama,www.uwa.edu,32.588132,-88.186329,37400,40400,secure.uwa.edu/calculator/,102400,0.400000006,42.47999954,1.710000038,55.49000168,0.549,0.4906,1059,3,AL,2516,2152,0.4173,0.5827,101587,35470,2020-06-01
NULL,22.77819199,5945,Andalusia,14136,NULL,0.520342612,NULL,PrivacySuppressed,NULL,2,Lurleen B Wallace Community College,https://www.lbwcc.edu,31.322947,-86.452262,26500,32000,https://www.lbwcc.edu/financial-aid/net-price-calculator,898800,0.289999992,23.57999992,1.179999948,74.44999695,0.5052,0.6463,NULL,2,AL,2392,1267,0.3631,0.6369,101602,36420-1418,2020-06-01
0.5646,19.67021277,6302,Marion,18568,NULL,0.233802817,NULL,11500,NULL,2,Marion Military Institute,www.marionmilitary.edu,32.623734,-87.322041,42700,49800,marionmilitary.edu/calculator/,102600,1.620000005,21.42000008,7.429999828,72.26999664,0.4193,0.88,1155,2,AL,459,392,0.7602,0.2398,101648,36756-3207,2020-06-01
NULL,21.32274011,4615,Fairfield,22828,NULL,0.416458853,NULL,33143,NULL,1,Miles College,www.miles.edu,33.482442,-86.908751,26500,29500,https://miles.studentaidcalculator.com/survey.aspx,102800,0.939999998,60.72000122,2.819999933,35.88000107,0.8636,0.7094,NULL,3,AL,2089,1546,0.4754,0.5246,101675,35064-2621,2020-06-01
0.4704,23.91798942,4863,Mobile,35463,NULL,0.324285714,197,27000,209,1,University of Mobile,www.umobile.edu,30.793247,-88.128934,35200,38700,umobile.edu/financial-aid/cost-calculator/,102900,1.029999971,25.10000038,2.319999933,71.04000092,0.431,1,1094,3,AL,1652,1294,0.3601,0.6399,101693,36613-2842,2020-06-01
0.4848,21.02364532,7710,Montevallo,24411,NULL,0.325237592,442,24039,331,1,University of Montevallo,www.montevallo.edu,33.10625,-86.865099,34200,36100,https://www.montevallo.edu/NetPriceCalculator/,100400,0.75999999,19.29999924,2.079999924,77.80000305,0.3986,0.6667,1170,3,AL,2529,2251,0.3319,0.6681,101709,35115-6000,2020-06-01
NULL,23.10276297,4650,Muscle Shoals,12255,NULL,0.514111788,NULL,11500,NULL,2,Northwest-Shoals Community College,https://www.nwscc.edu,34.739788,-87.678089,25600,30800,www.nwscc.edu/about-nw-scc/college-departments/student-services/financial-aid/future-students-financial-aid-calculator,569700,0.280000001,11.15999985,2.230000019,85.79000092,0.4145,0.4845,NULL,2,AL,4741,2590,0.3799,0.6201,101736,35661,2020-06-01
0.6434,21.4253096,7898,Florence,18712,NULL,0.36326024,1572,23250,1335,1,University of North Alabama,www.una.edu,34.806738,-87.681361,37800,42800,studentnpc.collegeboard.org/,101600,0.550000012,13.22000027,2.049999952,83.76000214,0.3983,1,1134,3,AL,7077,5741,0.3982,0.6018,101879,35632-0001,2020-06-01
NULL,22.9963477,6335,Rainsville,8840,NULL,0.58277592,NULL,5144,NULL,2,Northeast Alabama Community College,https://www.nacc.edu,34.545471,-85.911664,27900,31700,https://www.nacc.edu/Content/Uploads/nacc.edu/files/Financial%20Aid/net-price-calc/npcalc.htm,103100,0.219999999,2.569999933,2.869999886,92.62999725,0.4682,0.3333,NULL,1,AL,3767,1982,0.3724,0.6276,101897,35986,2020-06-01
0.6589,21.73015873,4970,Huntsville,36361,NULL,0.17623498,76,31000,55,1,Oakwood University,https://www2.oakwood.edu,34.756344,-86.652705,29700,37400,https://oakwood.studentaidcalculator.com,103300,3.170000076,34.90999985,10.01000023,54.40000153,0.5024,0.7386,999,3,AL,1778,1569,0.427,0.573,101912,35896,2020-06-01
NULL,25.61852861,6351,Evergreen,8958,NULL,0.590322581,NULL,PrivacySuppressed,NULL,2,Reid State Technical College,www.rstc.edu,31.460265,-86.964797,22000,26800,images.pcmac.org/Uploads/ReidStateTech/ReidStateTech/Divisions/DocumentsCategories/Documents/index_%7BSIS703AD5AB07EA%7D.html,569200,0.300000012,36.54000092,0.930000007,61.31000137,0.5204,0.5313,NULL,1,AL,565,261,0.3716,0.6284,101994,36401,2020-06-01
NULL,24.32590412,6296,Mobile,10155,NULL,0.485397785,NULL,PrivacySuppressed,NULL,2,Bishop State Community College,www.bishop.edu,30.693972,-88.056982,22800,28300,https://www.bishop.edu/calculator/index.htm,103000,1.070000052,46.38000107,1.25,50.06999969,0.5435,0.5379,NULL,1,AL,4748,2440,0.4057,0.5943,102030,36603-5898,2020-06-01
0.8208,21.15186916,8888,Birmingham,46474,NULL,0.138055222,2483,19304,2084,1,Samford University,www.samford.edu,33.464128,-86.791799,49900,59800,https://samford.studentaidcalculator.com/survey.aspx,103600,1.690000057,14.69999981,3.25,80.91000366,0.1227,0.9848,1228,3,AL,3511,3524,0.3329,0.6671,102049,35229-2240,2020-06-01
NULL,27.30508475,2957,Selma,15822,NULL,0.619433198,18,30452,13,1,Selma University,selmauniversity.edu,32.420387,-87.032392,PrivacySuppressed,PrivacySuppressed,selmauniversity.edu/NetPriceCalculator/npcalc.htm,4067300,NULL,NULL,NULL,NULL,0.9646,1,NULL,3,AL,348,304,0.4342,0.5658,102058,36701,2020-06-01
NULL,22.36853089,4936,Tuscaloosa,12070,NULL,0.476304452,NULL,PrivacySuppressed,NULL,2,Shelton State Community College,www.sheltonstate.edu,33.120531,-87.56148,27100,31100,apps.sheltonstate.edu/netpricecalculator/npcalc.htm,569100,0.629999995,36.84999847,1.350000024,60.90999985,0.4658,0.4429,NULL,2,AL,7253,3829,0.4395,0.5605,102067,35405-8522,2020-06-01
NULL,23.65647365,7648,Boaz,11073,NULL,0.53262519,NULL,7000,NULL,2,Snead State Community College,www.snead.edu,34.201495,-86.169897,27800,30700,www.snead.edu/financial_aid/net_price_calculator.aspx,103800,0.25999999,4.289999962,5.590000153,90.76000214,0.486,0.2657,NULL,2,AL,3611,1872,0.3857,0.6143,102076,35957-0734,2020-06-01
0.7931,21.94726688,7239,Mobile,19835,NULL,0.334257975,5470,25000,4541,1,University of South Alabama,www.southalabama.edu,30.696033,-88.178711,37800,46800,www.southalabama.edu/departments/finaid/netpricecalculator/,105700,1.460000038,24.68000031,1.700000048,71.43000031,0.3922,0.6146,1186,3,AL,12062,10035,0.4098,0.5902,102094,36688-0002,2020-06-01
0.6577,19.90214067,6672,Mobile,51969,NULL,0.251633987,157,27000,125,1,Spring Hill College,www.shc.edu,30.694751,-88.138199,45100,51300,https://shc.studentaidcalculator.com/survey.aspx,104100,1.75999999,22.54000092,4.75,72.66000366,0.342,0.6667,1130,3,AL,1495,1252,0.3866,0.6134,102234,36608-1791,2020-06-01
0.3859,21.02772964,5094,Tuscaloosa,21314,NULL,0.410505837,NULL,33500,NULL,1,Stillman College,https://stillman.edu,33.200006,-87.585278,28200,33700,https://stillman.edu/admissions/cost-of-attendance/,104400,1.440000057,49.04999924,4.440000057,45.75,0.8316,0.6949,NULL,3,AL,854,689,0.4601,0.5399,102270,35401,2020-06-01
NULL,21.15163934,5861,Talladega,22514,NULL,0.398058252,NULL,32039,4,1,Talladega College,www.talladega.edu,33.433472,-86.112704,21900,23900,www.talladega.edu/netcalc/npcalc.htm,104600,1.070000052,52.13999939,4.710000038,43.09000015,0.8951,0.5789,NULL,3,AL,1018,1208,0.5058,0.4942,102298,35160,2020-06-01
NULL,24.24368049,5384,Montgomery,12383,NULL,0.430439952,NULL,PrivacySuppressed,NULL,2,H Councill Trenholm State Community College,www.trenholmstate.edu,32.350109,-86.343057,23100,28000,www.trenholmstate.edu/net-price-calculator/,573400,0.639999986,53.68000031,1.200000048,44.11999893,0.5122,0.4928,NULL,1,AL,2572,1567,0.4461,0.5539,102313,36108-3199,2020-06-01
0.8767,25.74979691,6639,Troy,19180,NULL,0.389845712,4941,26500,3529,1,Troy University,www.troy.edu,31.800672,-85.957094,37000,41100,www.troy.edu/net-price-calculator/index-030119.html,104700,1.070000052,34,2.819999933,62.02000046,0.4015,0.533,1082,3,AL,16868,13147,0.3837,0.6163,102368,36082-0001,2020-06-01
0.5182,19.72319392,4810,Tuskegee,39383,NULL,0.230643847,513,31000,497,1,Tuskegee University,www.tuskegee.edu,32.4309,-85.708492,35500,42200,www.tuskegee.edu,105000,2.849999905,47.15999985,8.989999771,42.84999847,0.5256,1,1119,3,AL,2834,2529,0.3638,0.6362,102377,36088-1920,2020-06-01
NULL,31.90140845,6136,Daphne,NULL,NULL,PrivacySuppressed,353,22831,241,1,United States Sports Academy,www.ussa.edu,30.639329,-87.91163,PrivacySuppressed,PrivacySuppressed,https://ussa.edu/admissions/consumer-information/net-price-calculator/,2170600,3.180000067,16.70999908,9.050000191,73.29000092,0.534,0.2,NULL,3,AL,213,266,0.7932,0.2068,102395,36526-7055,2020-06-01
NULL,23.36818632,6682,Jasper,13681,NULL,0.530808366,NULL,PrivacySuppressed,NULL,2,Bevill State Community College,www.bscc.edu,33.836929,-87.266406,28100,31300,www.bscc.edu/Content/Uploads/bscc.edu/files/BSCCNetPriceCalculator.html,573300,0.25,15.53999996,1.120000005,82.73999786,0.4372,0.3234,NULL,2,AL,5537,2825,0.3865,0.6135,102429,35501,2020-06-01
0.8115,25.10750308,9128,Anchorage,19942,NULL,0.389193875,1171,20671,759,1,University of Alaska Anchorage,www.uaa.alaska.edu,61.190163,-149.82619,45400,51200,www.uaa.alaska.edu/financialaid/customcf/npcalc.htm,1146200,4.260000229,4.179999828,5.090000153,73.66000366,0.2255,0.484,NULL,3,AK,22973,10482,0.419,0.581,102553,99508,2020-06-01
NULL,24.6,3500,Palmer,24759,NULL,PrivacySuppressed,NULL,PrivacySuppressed,NULL,1,Alaska Bible College,www.akbible.edu/,61.598553,-149.111972,NULL,NULL,www.akbible.edu/admissions/tuition-aid/net-price-calculator/,884300,NULL,NULL,NULL,NULL,0.6129,NULL,NULL,3,AK,44,37,0.6216,0.3784,102580,99645,2020-06-01
0.7611,25.45030882,9584,Fairbanks,18510,NULL,0.398832685,1321,19407,975,1,University of Alaska Fairbanks,www.uaf.edu,64.85756,-147.823146,38700,45100,uaf.edu/finaid/costs/net-price-calculator.php,106300,2.49000001,4.679999828,4.679999828,69.34999847,0.2202,0.6066,1128,3,AK,11417,4657,0.435,0.565,102614,99775,2020-06-01
0.6333,26.9668616,8192,Juneau,16853,NULL,0.395143488,443,19696,256,1,University of Alaska Southeast,www.uas.alaska.edu,58.384846,-134.638255,36000,39500,www.uas.alaska.edu/financial_aid/costs/npcalc.htm,106500,3.589999914,1.350000024,4.619999886,73.93000031,0.1767,0.6092,NULL,3,AK,3622,1216,0.3536,0.6464,102632,99801-8697,2020-06-01
0.8425,25.58219178,5467,Anchorage,34990,NULL,PrivacySuppressed,252,21552,201,1,Alaska Pacific University,www.alaskapacific.edu,61.190968,-149.804168,40200,45300,https://npc.collegeboard.org/student/app/alaskapacific,106100,4.110000134,4.449999809,6.889999866,73.12999725,0.3492,0.5692,NULL,3,AK,340,283,0.3286,0.6714,102669,99508,2020-06-01
NULL,26.16853933,NULL,Seward,NULL,13924,0.44137931,NULL,5500,NULL,3,Alaska Vocational Technical Center,www.avtec.edu/,60.110626,-149.444487,35300,45600,www.avtec.edu/book-page/net-price-calculator,3160300,2.269999981,1.700000048,2.680000067,54.95000076,0.0433,NULL,NULL,1,AK,1895,855,0.8386,0.1614,102711,99664-0889,2020-06-01
1,28.03274712,4711,Vancouver,35613,NULL,0.554040144,7,14875,NULL,1,Charter College,https://www.chartercollege.edu,45.617798,-122.494766,39800,46400,https://chartercollege.studentaidcalculator.com/survey.aspx,2576900,5.400000095,5.860000134,5.849999905,71.16999817,0.6195,0.3162,NULL,1,WA,4415,2853,0.2461,0.7539,102845,98683-7575,2020-06-01
NULL,27.03846154,4068,Anchorage,NULL,21369,0.476772616,NULL,9025,NULL,2,Alaska Career College,www.alaskacareercollege.edu,61.181443,-149.856954,31200,32000,www.alaskacareercollege.edu/tuition-calculator,2541000,5.150000095,5.820000172,5.610000134,68.23000336,0.7406,0.2308,NULL,1,AK,586,415,0.1398,0.8602,103501,99507-1033,2020-06-01
NULL,25.78489245,NULL,Tucson,NULL,19366,0.569871795,NULL,12027,NULL,3,Empire Beauty School-Tucson,www.empire.edu,32.235657,-110.927187,20300,24500,www.empire.edu/net-price-calculator,966403,1.889999986,3.200000048,32.81999969,73.77999878,0.573,NULL,NULL,1,AZ,178,102,0.1275,0.8725,103741,85716,2020-06-01
0.8951,26.39643653,4069,Phoenix,NULL,24471,0.554835072,NULL,9365,NULL,2,Carrington College-Phoenix North,https://carrington.edu/,33.561689,-112.116105,25400,27200,https://carrington.edu/financial-aid/how-much-will-it-cost/,2100600,1.850000024,3.390000105,32.29999924,68.87000275,0.2056,0.6429,NULL,1,AZ,963,475,0.1137,0.8863,103893,85051-4063,2020-06-01
NULL,26.39643653,6037,Mesa,NULL,25115,0.554835072,NULL,9365,NULL,2,Carrington College-Mesa,https://carrington.edu/,33.39248,-111.853218,25400,27200,https://carrington.edu/financial-aid/how-much-will-it-cost/,2100611,NULL,NULL,NULL,NULL,0.2503,0.325,NULL,1,AZ,883,541,0.1423,0.8577,103909,85210,2020-06-01
0.8736,26.39643653,4931,Tucson,NULL,22025,0.554835072,NULL,9365,NULL,2,Carrington College-Tucson,https://carrington.edu/,32.224391,-110.983056,25400,27200,https://carrington.edu/financial-aid/how-much-will-it-cost/,2100607,NULL,NULL,NULL,NULL,0.1891,0.5385,NULL,1,AZ,497,227,0.1586,0.8414,103927,85745,2020-06-01
NULL,27.92113565,7223,Flagstaff,32164,NULL,0.584527221,NULL,25601,NULL,1,CollegeAmerica-Flagstaff,www.collegeamerica.edu,35.194495,-111.657673,23900,26400,https://www.collegeamerica.edu/net-price-calculator,3120300,0.970000029,1.919999957,14.60999966,44.08000183,0.8205,NULL,NULL,2,AZ,117,62,0.129,0.871,103945,86001,2020-06-01
NULL,28.58035714,NULL,Tucson,NULL,18306,0.505376344,NULL,4735,NULL,3,Arizona Academy of Beauty-East,www.arizonaacademy.com,32.237253,-110.872305,15300,18800,www.arizonaacademy.com,886400,1.840000033,3.99000001,35.88999939,71.54000092,0.7835,NULL,NULL,1,AZ,97,57,0.0702,0.9298,103954,85712,2020-06-01
NULL,28.2341119,NULL,Glendale,NULL,34346,0.586231884,NULL,15333,NULL,3,Platt College-Arizona Automotive Institute Arizona,www.aai.edu,33.537249,-112.157344,35300,37800,www.aai.edu/NetPriceCalculatorAAI/npcalc.htm,2306807,2.569999933,4.519999981,35.18000031,63.13999939,0.6401,NULL,NULL,1,AZ,1192,692,0.9118,0.0882,103963,85301-3579,2020-06-01
NULL,29.24475777,6204,Phoenix,NULL,34841,0.559032717,99,9500,16,1,Brookline College-Phoenix,www.brooklinecollege.edu,33.566102,-112.112473,21900,23700,brooklinecollege.studentaidcalculator.com/survey.aspx,2218800,1.669999957,4.059999943,40.72999954,65.58999634,0.6924,0.32,NULL,1,AZ,1325,1230,0.1715,0.8285,104090,85021,2020-06-01
0.8478,24.7478311,11451,Tempe,25621,NULL,0.381317921,10024,20349,8741,1,Arizona State University-Tempe,www.asu.edu/,33.417721,-111.934383,47700,55500,https://students.asu.edu/financialaid/net-price,108100,2.900000095,3.49000001,19.20000076,78.76000214,0.3026,0.7766,1240,3,AZ,45657,42529,0.559,0.441,104151,85287,2020-06-01
NULL,23.21819527,6333,Yuma,15407,NULL,0.610764687,NULL,5250,NULL,2,Arizona Western College,www.azwestern.edu,32.689306,-114.495968,27700,32000,https://schedule.azwestern.edu/npcalc/index.html,107100,1.080000043,2.75,61.04999924,62.84000015,0.4516,0.3079,NULL,1,AZ,11492,6673,0.4268,0.5732,104160,85365-8834,2020-06-01
0.8442,21.3087377,11147,Tucson,26712,NULL,0.314072957,11040,20000,9944,1,University of Arizona,https://www.arizona.edu,32.232672,-110.950815,47300,56000,https://arizona.studentaidcalculator.com/survey.aspx,108300,3.150000095,3.349999905,22.52000046,77.51000214,0.2896,0.7625,1198,3,AZ,37278,33509,0.4736,0.5264,104179,85721-0066,2020-06-01
NULL,23.59405941,5226,Tucson,35552,NULL,0.4,5,46212,1,1,Southwest University of Visual Arts-Tucson,www.suva.edu,32.252879,-110.927265,30200,32600,www.suva.edu/NetPriceCalculator/,2491500,2.109999895,3.099999905,29.21999931,76.16999817,0.7295,1,NULL,3,AZ,127,124,0.5242,0.4758,104188,85716,2020-06-01
NULL,25.70838926,6498,Coolidge,10680,NULL,0.498192045,NULL,10905,NULL,2,Central Arizona College,www.centralaz.edu,32.957092,-111.652501,26500,31500,doc.centralaz.edu/NetPriceCalculator/npcalc.htm,728300,0.980000019,3.269999981,32.70999908,66.98999786,0.408,1,NULL,1,AZ,8086,4976,0.371,0.629,104346,85128-9030,2020-06-01
NULL,28.34210526,NULL,Lake Havasu City,NULL,13737,0.492307692,NULL,7389,NULL,3,Charles of Italy Beauty College,www.charlesofitaly.edu,34.477485,-114.332686,16100,22600,www.charlesofitaly.edu,2280500,0.879999995,0.620000005,11.01000023,89.81999969,0.52,NULL,NULL,1,AZ,75,43,0.0698,0.9302,104391,86403,2020-06-01
NULL,24.1831972,6550,Sierra Vista,11589,NULL,0.486238532,NULL,8239,NULL,2,Cochise County Community College District,https://www.cochise.edu,31.564597,-110.246946,28500,34300,https://www.cochise.edu/netprice/npcalc.htm,107200,1.720000029,4.940000057,37.97000122,74.30999756,0.367,0.3355,NULL,2,AZ,11087,3404,0.4509,0.5491,104425,85635-2317,2020-06-01
NULL,25.59180918,NULL,Flagstaff,NULL,19017,0.501391208,NULL,11308,NULL,3,Empire Beauty School-Flagstaff,www.empire.edu,35.197151,-111.625936,18500,22000,www.empire.edu/net-price-calculator,1054207,1.710000038,2.099999905,16.72999954,81.44000244,0.5484,NULL,NULL,1,AZ,62,37,0,1,104434,86004,2020-06-01
NULL,25.59180918,NULL,Chandler,NULL,19232,0.501391208,NULL,11308,NULL,3,Empire Beauty School-Chandler,www.empire.edu,33.347586,-111.860423,18500,22000,www.empire.edu/net-price-calculator,1054208,1.710000038,2.099999905,16.72999954,81.44000244,0.6316,NULL,NULL,1,AZ,114,48,0.0833,0.9167,104443,85224,2020-06-01
NULL,29.86131387,NULL,Tucson,NULL,23658,0.49695122,NULL,6333,NULL,3,Cortiva Institute-Tucson,www.cortiva.com/,32.21901,-110.856785,22100,27600,www.cortiva.com/npc/NetPriceCalculator_Tucson_Hoboken/npcalc_tucson_hoboken.htm,2582700,2.119999886,4.610000134,25.13999939,77.87000275,0.8261,NULL,NULL,1,AZ,161,99,0.2323,0.7677,104504,85710,2020-06-01
NULL,24.92873741,NULL,Mesa,NULL,16901,0.488605287,NULL,7499,NULL,3,Avalon School of Cosmetology-Mesa,avalon.edu/locations/mesa-az/,33.376583,-111.858305,19000,23000,avalon.edu/financial-aid/net-price-calculator-2-2/,1085800,2,3.039999962,19.54000092,80.98999786,0.6117,NULL,NULL,1,AZ,515,356,0.0449,0.9551,104568,85210,2020-06-01
NULL,24.15144766,8091,Thatcher,12647,NULL,0.39347079,NULL,PrivacySuppressed,NULL,2,Eastern Arizona College,www.eac.edu,32.843664,-109.76234,29200,35700,eac.edu/Student_Services/Financial_Aid/Net_Price/default.shtm,107300,0.879999995,3.380000114,22.64999962,66.44000244,0.189,0.2827,NULL,1,AZ,8682,4291,0.4726,0.5274,104577,85552-0769,2020-06-01
0.6723,25.38523146,9354,Prescott,51036,NULL,0.355459272,70,25000,50,1,Embry-Riddle Aeronautical University-Prescott,prescott.erau.edu/,34.616766,-112.449741,66200,70300,prescotterau.studentaidcalculator.com/survey.aspx,147902,3.640000105,9.75,11.32999992,78.79000092,0.2517,0.7083,NULL,3,AZ,2770,2712,0.75,0.25,104586,86301-3720,2020-06-01
NULL,NULL,4778,Scottsdale,NULL,NULL,NULL,30,PrivacySuppressed,19,1,School of Architecture at Taliesin,www.taliesin.edu,33.607097,-111.845411,NULL,NULL,taliesin.edu/NetPrice/npcalc.htm,2533200,NULL,NULL,NULL,NULL,NULL,NULL,NULL,3,AZ,NULL,NULL,NULL,NULL,104665,85259,2020-06-01
NULL,24.81320098,9055,Glendale,11843,NULL,0.529686243,NULL,7792,NULL,2,Glendale Community College,www.gccaz.edu,33.570226,-112.190735,34500,38300,https://www.maricopa.edu/npc/gcc/npcalc.htm,107600,2.200000048,4.199999809,27.11000061,75.16999817,0.3292,1,NULL,1,AZ,27350,13588,0.4565,0.5435,104708,85302,2020-06-01
0.732,31.01565192,6546,Phoenix,31248,NULL,0.474408053,57448,20168,36114,1,Grand Canyon University,www.gcu.edu,33.513231,-112.129929,52700,58500,https://www.gcu.edu/admissions/tuition-and-financing.php,107400,2.619999886,10.31999969,15.72000027,75.26000214,0.4618,0.078,NULL,3,AZ,76300,53209,0.2913,0.7087,104717,85017,2020-06-01
NULL,27.91328671,8855,Phoenix,12180,NULL,0.56622807,NULL,8000,NULL,2,GateWay Community College,www.gatewaycc.edu,33.449686,-111.997077,34100,39000,www.gatewaycc.edu/enroll/paying-for-college,830300,1.950000048,4.610000134,32.40999985,69.80000305,0.322,1,NULL,1,AZ,7660,4188,0.4286,0.5714,105145,85034,2020-06-01
NULL,25.26604313,9308,Mesa,12362,NULL,0.457851491,NULL,8725,NULL,2,Mesa Community College,www.mesacc.edu,33.390323,-111.871255,36000,41500,www.mesacc.edu/students/net-price-calculator.html,107700,2.359999895,3.150000095,19.80999947,77.83000183,0.279,1,NULL,2,AZ,30010,15775,0.4754,0.5246,105154,85202,2020-06-01
NULL,27.52591284,6415,Kingman,12854,NULL,0.536089699,NULL,12000,NULL,2,Mohave Community College,https://www.mohave.edu,35.270996,-114.029838,27500,32900,https://www.mohave.edu/assets/NetPriceCalculator1415/npcalc.htm,1186400,0.949999988,0.720000029,11.68000031,89.23000336,0.3864,0.266,NULL,2,AZ,5809,2778,0.315,0.685,105206,86409-1238,2020-06-01
NULL,25.00465503,NULL,Phoenix,NULL,NULL,0.51090218,NULL,15434,NULL,2,Universal Technical Institute of Arizona Inc-Motorcycle Mechanics Institute Division,www.uti.edu/,33.684428,-112.121336,38700,41600,www.uti.edu/admissions/tuition,2100500,2.579999924,7.429999828,12.73999977,81.58000183,0.4842,NULL,NULL,1,AZ,1427,952,0.9454,0.0546,105215,85027,2020-06-01
NULL,24.19835841,5714,Tsaile,11550,NULL,0.431893688,NULL,PrivacySuppressed,NULL,1,Dine College,https://www.dinecollege.edu,36.293328,-109.21684,21000,23400,hooghan.dinecollege.edu/NetPriceCalculator/npcalc.htm,824600,0.150000006,0.189999998,1.940000057,5.340000153,0.6464,0.701,NULL,2,AZ,2034,1399,0.3259,0.6741,105297,86556,2020-06-01
0.8262,24.12509743,8207,Flagstaff,26748,NULL,0.386862576,4885,19647,3994,1,Northern Arizona University,https://nau.edu/,35.188449,-111.653724,40100,44600,https://www7.nau.edu/finaid/NetPriceCalculator/,108200,2.220000029,2.470000029,18.75,74.90000153,0.3479,0.6573,NULL,3,AZ,29918,26647,0.3871,0.6129,105330,86011-4092,2020-06-01
NULL,26.97667639,6141,Holbrook,13819,NULL,0.466437177,NULL,PrivacySuppressed,NULL,2,Northland Pioneer College,www.npc.edu,34.93031,-110.142199,25200,31300,www.npc.edu/financial-aid-scholarships/net-price-calculator,1186200,0.379999995,0.920000017,9.930000305,50.86999893,0.1748,0.5137,NULL,1,AZ,5970,1235,0.3377,0.6623,105349,86025-0610,2020-06-01
NULL,29.53267974,6871,Phoenix,NULL,NULL,0.400868307,643,21772,465,1,Ottawa University-Phoenix,www.ottawa.edu,33.572173,-112.113001,41500,48100,www.ottawa.edu/resources/netpricecalculator/npcalc.htm,193701,1.879999995,8.359999657,12.73999977,80.31999969,0.5,0.875,NULL,3,AZ,586,340,0.2853,0.7147,105367,85021,2020-06-01
NULL,25.67357708,8921,Phoenix,12075,NULL,0.61575524,NULL,9636,NULL,2,Phoenix College,www.phoenixcollege.edu,33.481361,-112.088293,31900,36000,www.phoenixcollege.edu/tuition-and-fees/net-price-calculators,107800,1.899999976,5.300000191,39.29999924,65.97000122,0.3808,1,NULL,2,AZ,17335,8472,0.347,0.653,105428,85013,2020-06-01
NULL,30.23076923,NULL,Scottsdale,NULL,22011,0.475609756,NULL,7600,NULL,3,Cortiva Institute-Scottsdale,www.cortiva.com/,33.466153,-111.90807,21900,26200,www.cortiva.com/locations/arizona-massage-school/tuition-financial-aid.aspx,2623800,1.75,2.890000105,19.64999962,79.66999817,0.6788,NULL,NULL,1,AZ,137,69,0.2754,0.7246,105482,85257,2020-06-01
NULL,24.66969086,5380,Tucson,8853,NULL,0.477607973,NULL,7894,NULL,2,Pima Community College,www.pima.edu,32.222125,-110.886659,30900,35000,www.pima.edu/web/net-price-calculator/npc.htm,726600,2,3.369999886,32.06000137,72.81999969,0.3167,0.2696,NULL,1,AZ,33740,17246,0.4294,0.5706,105525,85709-1275,2020-06-01
NULL,26.64197627,5157,Tucson,NULL,27079,0.505392912,NULL,9499,NULL,1,Pima Medical Institute-Tucson,pmi.edu,32.2502,-110.921301,28800,30600,https://secure.pmi.edu/npcalc/,2217100,4.630000114,5.070000172,27.20999908,71.01000214,0.568,0.309,NULL,1,AZ,3535,1851,0.2026,0.7974,105534,85712,2020-06-01
NULL,26.64197627,5019,Albuquerque,NULL,23048,0.505392912,NULL,9499,NULL,2,Pima Medical Institute-Albuquerque,pmi.edu,35.104855,-106.59488,28800,30600,https://secure.pmi.edu/npcalc/,2217103,4.630000114,5.070000172,27.20999908,71.01000214,0.6547,0.3333,NULL,1,NM,1309,565,0.2354,0.7646,105543,87110,2020-06-01
0.9516,27.98067633,5286,Prescott,41957,NULL,0.231958763,432,22728,371,1,Prescott College,https://www.prescott.edu,34.5452,-112.477185,33200,34300,app.prescott.edu/net-price-calculator/,2065300,2.619999886,3.279999971,15.36999989,81.87000275,0.4773,0.6935,NULL,3,AZ,542,394,0.3503,0.6497,105589,86301,2020-06-01
NULL,30.48436019,4239,Phoenix,NULL,27333,0.522565321,NULL,10065,NULL,2,Refrigeration School Inc,https://www.refrigerationschool.com,33.448692,-111.989357,41500,45000,https://www.refrigerationschool.com/calculator/,1168900,1.879999995,4,27.67000008,70.52999878,0.6208,0.9167,NULL,1,AZ,1308,912,0.9507,0.0493,105659,85034-1816,2020-06-01
NULL,30.17698328,6182,Tempe,10942,NULL,0.473234743,NULL,9050,NULL,2,Rio Salado College,www.rio.maricopa.edu,33.413309,-111.97417,39500,43400,www.riosalado.edu/cashier/Pages/TuitionCalculator.aspx,2177500,2.150000095,4.670000076,22.29000092,77.12000275,0.1377,1,NULL,1,AZ,42716,6066,0.3089,0.6911,105668,85281,2020-06-01
NULL,27.5,NULL,Phoenix,NULL,24335,PrivacySuppressed,NULL,PrivacySuppressed,NULL,3,Roberto-Venn School of Luthiery,www.roberto-venn.com,33.45489,-112.086161,24000,29000,roberto-venn.com/guitar-making-repair-program/net-price-calculator/,2113800,3.029999971,4,12.06999969,84.06999969,0.4043,NULL,NULL,1,AZ,47,20,1,0,105677,85007,2020-06-01
NULL,25.55099648,9120,Scottsdale,12661,NULL,0.40233498,NULL,8250,NULL,2,Scottsdale Community College,www.scottsdalecc.edu,33.51135,-111.885186,35600,42500,https://www.scottsdalecc.edu/students/student-business-services/net-price-calculator,830400,2.24000001,3.049999952,16.31999969,80.80999756,0.1735,1,NULL,2,AZ,13652,5660,0.4564,0.5436,105747,85256,2020-06-01
NULL,25.0490968,9028,Phoenix,11975,NULL,0.589511754,NULL,9748,NULL,2,South Mountain Community College,www.southmountaincc.edu,33.382406,-112.032635,30200,33400,www.southmountaincc.edu/disclosures/,2146600,1.840000033,8.369999886,42.79999924,60.36999893,0.4223,1,NULL,2,AZ,5909,2933,0.4238,0.5762,105792,85042,2020-06-01
0.5644,22.75910931,4607,Glendale,37562,NULL,0.382550336,NULL,22500,NULL,1,Arizona Christian University,www.arizonachristian.edu,33.595117,-112.026211,32200,34900,arizonachristian.edu/admissions/financial-aid/calculator,711300,2.390000105,2.349999905,19.70999908,82.26999664,0.4173,0.2577,1032,3,AZ,834,705,0.5674,0.4326,105899,85306-3216,2020-06-01
NULL,22.80322043,5214,Avondale,NULL,24803,0.548605358,NULL,16000,NULL,2,Universal Technical Institute of Arizona Inc,www.uti.edu,33.453005,-112.288123,45200,48100,www.uti.edu/admissions/tuition,822100,4.420000076,7.360000134,19.86000061,73.59999847,0.5437,NULL,NULL,1,AZ,2461,1869,0.9486,0.0514,106041,85323,2020-06-01
NULL,26.16532041,NULL,Phoenix,NULL,19158,0.552452316,NULL,12043,NULL,3,Empire Beauty School-NW Phoenix,www.empire.edu,33.538093,-112.118168,18200,20200,www.empire.edu/net-price-calculator,945915,1.820000052,5.46999979,43.15999985,64.27999878,0.7288,NULL,NULL,1,AZ,177,87,0.0575,0.9425,106111,85051,2020-06-01
NULL,27.90088198,7392,Prescott,11961,NULL,0.5,NULL,9876,NULL,2,Yavapai College,www.YC.EDU,34.547495,-112.453395,28800,34000,www.yc.edu/webtools/forms/netpricecalc/,107900,0.839999974,0.939999998,11.09000015,86.30999756,0.2866,0.5274,NULL,1,AZ,10116,4598,0.4093,0.5907,106148,86301,2020-06-01
0.7933,25.51552309,7623,Little Rock,21301,NULL,0.391040462,3567,21043,2800,1,University of Arkansas at Little Rock,ualr.edu/www/,34.723254,-92.339778,34900,39500,ualr.edu/finaid/npc/npcalc.htm,110100,1.019999981,26.06999969,2.569999933,70.05000305,0.36,0.9709,1099,3,AR,10862,6328,0.3807,0.6193,106245,72204,2020-06-01
NULL,28.42,9396,Little Rock,NULL,NULL,0.395027624,2406,14447,2152,1,University of Arkansas for Medical Sciences,www.uams.edu,34.749048,-92.320046,61000,69000,studentfinancialservices.uams.edu/tuition-and-fees/,110900,0.860000014,16.45000076,2.970000029,79.33999634,0.3638,0.8453,NULL,3,AR,700,601,0.178,0.822,106263,72205-7199,2020-06-01
NULL,21.672,4407,Little Rock,22502,NULL,0.449528937,NULL,24750,NULL,1,Arkansas Baptist College,www.arkansasbaptist.edu,34.734751,-92.290555,21800,25100,www.arkansasbaptist.edu/financial-aid/net-price-calculator/,108700,1.029999971,44.66999817,3.470000029,50.86000061,0.8061,0.4878,NULL,2,AR,858,525,0.7371,0.2629,106306,72202-6068,2020-06-01
NULL,28.24309392,NULL,Little Rock,NULL,25734,0.554054054,NULL,6333,NULL,3,Arkansas Beauty School-Little Rock,arkbeautyschool.com,34.672171,-92.343366,14000,16400,arkbeautyschool.com,3005100,0.930000007,44.34000015,3.430000067,51.06000137,0.7227,NULL,NULL,1,AR,220,125,0.032,0.968,106315,72209,2020-06-01
NULL,25.36363636,NULL,Russellville,NULL,12951,0.529411765,NULL,6695,NULL,3,Arkansas Beauty College,https://www.arkansasbeautycollege.us/,35.27902,-93.135369,PrivacySuppressed,PrivacySuppressed,arkbeautycollege.wixsite.com/netpricecalculator,3997300,NULL,NULL,NULL,NULL,0.8,NULL,NULL,1,AR,40,15,0,1,106324,72801,2020-06-01
0.4986,19.92011019,6655,Batesville,38173,NULL,0.3,NULL,22487,NULL,1,Lyon College,www.lyon.edu,35.777619,-91.625354,38600,44800,https://my.lyon.edu/ICS/Portal_Homepage.jnz?portlet=External_Content,108800,0.930000007,6.869999886,3.130000114,88.70999908,0.3854,1,1195,3,AR,694,655,0.5664,0.4336,106342,72501,2020-06-01
NULL,28.01123596,NULL,North Little Rock,NULL,25828,0.618421053,NULL,16355,NULL,3,Arkansas College of Barbering and Hair Design,www.arkansascollegeofbarbering.com,34.753843,-92.266429,15300,19000,www.arkansascollegeofbarbering.com,3023400,0.75999999,45.25,2.900000095,50.77999878,0.7277,NULL,NULL,1,AR,213,128,0.6563,0.3438,106351,72114,2020-06-01
NULL,25.57228916,NULL,Fort Smith,NULL,14333,0.542857143,NULL,11974,NULL,3,Arthur's Beauty College Inc-Fort Smith,www.arthursbeautycollege.com,35.379955,-94.410967,17300,19600,https://www.arthursbeautycollege.com/fort-smith.html,2363500,2.970000029,5.639999866,6.389999866,81.37000275,0.7167,NULL,NULL,1,AR,60,31,0,1,106360,72901-3342,2020-06-01
0.7747,21.28390724,9866,Fayetteville,22750,NULL,0.259961487,5481,21500,4392,1,University of Arkansas,https://www.uark.edu,36.070009,-94.176981,44900,52700,https://finaid.uark.edu/aid-calculator.php,110800,1.480000019,7.809999943,5.21999979,84.94999695,0.1998,0.8632,1238,3,AR,24897,23121,0.4649,0.5351,106397,72701,2020-06-01
0.4435,21.15302491,5894,Pine Bluff,17689,NULL,0.367737526,142,24487,106,1,University of Arkansas at Pine Bluff,www.uapb.edu,34.244031,-92.018683,27200,30600,www.uapb.edu/admissions/net_price_calculator.aspx,108600,0.959999979,52.70000076,3.940000057,42.91999817,0.7231,0.8069,978,3,AR,2730,2467,0.4131,0.5869,106412,71601,2020-06-01
NULL,23.77515118,5040,Beebe,12491,NULL,0.456161864,NULL,6062,NULL,2,Arkansas State University-Beebe,www.asub.edu,35.074176,-91.895351,29400,32900,www.asub.edu/financial-aid/1718-files/npcalc.htm,109100,0.419999987,5.269999981,1.870000005,91.83999634,0.3394,0.5556,NULL,1,AR,5423,2473,0.3619,0.6381,106449,72012-1000,2020-06-01
0.7721,23.31908704,6902,Jonesboro,21375,NULL,0.388266797,7994,21000,4359,1,Arkansas State University-Main Campus,www.astate.edu/,35.842388,-90.679988,32200,36600,www.astate.edu/a/finaid/tuition-fees/net-price-calculator/index.dot,109000,0.49000001,13.94999981,1.929999948,83.26000214,0.4117,0.7609,1189,3,AR,11038,8623,0.4003,0.5997,106458,72401,2020-06-01
0.9024,23.04162127,6833,Russellville,18627,NULL,0.457478006,1429,19203,950,1,Arkansas Tech University,www.atu.edu,35.293237,-93.13562,34100,38600,www.atu.edu/finaid/npcalc.htm,108900,0.600000024,5.539999962,3.650000095,89.76000214,0.3955,1,NULL,3,AR,12058,7896,0.4519,0.5481,106467,72801-2222,2020-06-01
NULL,23.63097113,5696,Monticello,17653,NULL,0.453397474,461,16001,301,1,University of Arkansas at Monticello,www.uamont.edu/,33.590909,-91.811153,31500,35800,uam-web2.uamont.edu/netprice/npcalc.htm,108500,0.400000006,32.63999939,2.849999905,64.18000031,0.5686,1,NULL,1,AR,3841,2412,0.4357,0.5643,106485,71656,2020-06-01
NULL,26.15458937,NULL,Jacksonville,NULL,15350,0.460674157,NULL,11500,NULL,3,Arthur's Beauty College Inc-Jacksonville,arthursbeautycollege.com,34.891572,-92.102579,15300,18500,https://www.arthursbeautycollege.com/jacksonville.html,2538500,0.629999995,22.28000069,1.789999962,74.63999939,0.6429,NULL,NULL,1,AR,84,36,0.0556,0.9444,106494,72076,2020-06-01
0.6667,26.0512,6569,Little Rock,24473,NULL,0.416955017,NULL,9500,NULL,2,Baptist Health College Little Rock,https://www.bhclr.edu,34.713115,-92.40692,47200,48100,https://www.bhclr.edu/student-services/accounts/netprice/npcalc.htm,3105200,0.680000007,20.92000008,1.929999948,75.94999695,0.7766,0.6456,1015,2,AR,928,648,0.1358,0.8642,106546,72210-2827,2020-06-01
NULL,24.77405405,4934,Pocahontas,12045,NULL,0.480697385,NULL,9810,NULL,2,Black River Technical College,www.blackrivertech.edu,36.239793,-90.951033,26100,29100,www.blackrivertech.org/financial-aid/net-price-calculator,2052200,0.150000006,1.480000019,0.99000001,96.30000305,0.5203,0.5575,NULL,1,AR,1802,1271,0.3556,0.6444,106625,72455,2020-06-01
0.911,21.15254237,7040,Conway,21350,NULL,0.345958922,2332,21500,1752,1,University of Central Arkansas,www.uca.edu,35.077945,-92.457672,38300,42500,uca.edu/financialaid/financial-aid-net-price-calculator/,109200,0.720000029,16.56999969,2.50999999,79.80000305,0.4298,0.7806,1186,3,AR,10616,8906,0.3958,0.6042,106704,72035-0001,2020-06-01
0.6074,24.79196218,5448,Conway,25303,NULL,0.345549738,NULL,20250,NULL,1,Central Baptist College,www.cbc.edu,35.083838,-92.445021,35300,43000,www.cbc.edu/financial_aid/net_price_calculator.aspx,109300,0.810000002,12.46000004,2.980000019,83.27999878,0.4671,0.2692,1004,3,AR,859,663,0.54,0.46,106713,72034,2020-06-01
NULL,23.24208566,5087,De Queen,10512,NULL,0.586206897,NULL,PrivacySuppressed,NULL,2,Cossatot Community College of the University of Arkansas,www.cccua.edu/,34.043389,-94.3673,23100,28000,www.cccua.edu/pay-for-college/net-price-calculator,2220900,0.25999999,12.60999966,9.170000076,79,0.3638,0.5,NULL,1,AR,1983,903,0.3189,0.6811,106795,71832,2020-06-01
NULL,20.22875817,4175,Paragould,20912,NULL,0.395683453,NULL,20729,NULL,1,Crowley's Ridge College,www.crc.edu/,36.064845,-90.584395,26000,29600,crc.edu//financial_aid/netpricecalculator/netpricecalculator.html,109500,0.479999989,7.269999981,2.289999962,89.69000244,0.4019,0.5,NULL,3,AR,224,178,0.5112,0.4888,106810,72450,2020-06-01
NULL,25.77333333,NULL,Forrest City,9219,NULL,0.563535912,NULL,NULL,NULL,3,Crowley's Ridge Technical Institute,www.crti.tec.ar.us,35.039816,-90.767321,19300,23800,www.crti.tec.ar.us,704400,0.379999995,39.31999969,2.539999962,58.72000122,0.7561,NULL,NULL,NULL,AR,184,168,0.5417,0.4583,106829,72335-0925,2020-06-01
NULL,22.30588235,4755,Forrest City,10598,NULL,0.508287293,NULL,3450,NULL,2,East Arkansas Community College,https://WWW.EACC.EDU,35.041655,-90.767726,22700,26800,https://www.eacc.edu/pages?id=100,1226000,0.430000007,40.79999924,3.150000095,57.02999878,0.6067,0.4771,NULL,1,AR,1575,683,0.3821,0.6179,106883,72335-2204,2020-06-01
NULL,26.4084507,NULL,Little Rock,NULL,14963,0.594218415,NULL,4238,NULL,3,Eastern College of Health Vocations-Little Rock,www.easterncollege.edu,34.75128,-92.341891,21700,22300,www.https://easterncollege.edu/consumer-info/,2272400,0.879999995,37.54000092,2.789999962,58.72999954,0.8281,NULL,NULL,1,AR,413,121,0.0744,0.9256,106892,72205,2020-06-01
NULL,24.19614711,NULL,North Little Rock,NULL,21570,0.456790124,NULL,12186,NULL,3,Imagine-Paul Mitchell Partner School,paulmitchell.edu/littlerock,34.789913,-92.222202,PrivacySuppressed,PrivacySuppressed,paulmitchell.edu/littlerock/programs/cosmetology,3124900,0.779999971,32.25999832,2.329999924,64.12999725,0.6989,NULL,NULL,1,AR,568,382,0.0497,0.9503,106908,72117,2020-06-01
NULL,25.58117326,5258,Hot Springs,13072,NULL,0.456661316,NULL,10612,NULL,2,National Park College,www.np.edu,34.512687,-93.119248,25100,28100,https://np.edu/admissions/financial-aid/consumer-disclosures/index.html,1210500,0.469999999,7.570000172,2.670000076,88.87000275,0.6561,1,NULL,2,AR,3429,1869,0.3842,0.6158,106980,71913,2020-06-01
NULL,24.26237624,4339,Batesville,12896,NULL,0.458571429,NULL,7767,NULL,2,University of Arkansas Community College-Batesville,www.uaccb.edu,35.792923,-91.615852,25500,30300,www.uaccb.edu/sites/default/files/content/net-price-calculator/net-price-calculator.html,2073500,0.460000008,2.190000057,1.350000024,95.19000244,0.5024,0.2517,NULL,1,AR,1544,921,0.2932,0.7068,106999,72503-3350,2020-06-01
0.7462,20.98695951,7473,Searcy,29827,NULL,0.205479452,1666,26000,1147,1,Harding University,www.harding.edu,35.247337,-91.726041,40900,47000,www.harding.edu/admissions/npc.html,109700,1.820000052,8.899999619,5.730000019,84.52999878,0.2524,0.8054,1222,3,AR,4530,3953,0.4617,0.5383,107044,72149-5615,2020-06-01
0.9055,21.53536515,6703,Arkadelphia,20429,NULL,0.376738306,699,20000,557,1,Henderson State University,https://www.hsu.edu,34.128155,-93.059703,35700,40400,https://www.hsu.edu/pages/future-students/financial-aid/net-price-calculator/,109800,0.769999981,16.47999954,4.300000191,78.79000092,0.5071,0.9951,1116,3,AR,3151,2996,0.4342,0.5658,107071,71999-0001,2020-06-01
0.7217,19.43055556,7708,Conway,59901,NULL,0.192066806,12,27000,6,1,Hendrix College,www.hendrix.edu,35.101565,-92.443256,39700,44500,www.hendrix.edu/Admission/PriceCalculator/,109900,2.00999999,11.77000046,5.559999943,81.62000275,0.2857,1,1346,3,AR,1521,1192,0.4807,0.5193,107080,72032-3080,2020-06-01
NULL,25.54385965,NULL,Hot Springs,NULL,14323,0.446808511,NULL,11247,NULL,3,Hot Springs Beauty College,hotspringsbeautycollege.com,34.496057,-93.037277,PrivacySuppressed,PrivacySuppressed,hotspringsbeautycollege.com,3007100,0.439999998,8.449999809,2.309999943,88.45999908,0.8936,NULL,NULL,1,AR,47,28,0.1071,0.8929,107099,71901,2020-06-01
NULL,26.06976744,6959,Pine Bluff,NULL,NULL,PrivacySuppressed,NULL,10125,NULL,2,Jefferson Regional Medical Center School of Nursing,www.jrmc.org,34.187831,-92.018045,PrivacySuppressed,PrivacySuppressed,www.jrmc.org/schoolofnursing/Calculator/npcalc.htm,2330800,0.479999989,31.44000053,1.320000052,66.30000305,0.5938,NULL,NULL,1,AR,128,70,0.1286,0.8714,107123,71603,2020-06-01
0.7715,24.15714286,7049,Siloam Springs,38834,NULL,0.288828338,812,21828,613,1,John Brown University,www.jbu.edu,36.189812,-94.560283,45800,55400,info.eaglenet.jbu.edu/npc,110000,1.559999943,5.010000229,6.519999981,85.83999634,0.2921,0.9848,1257,3,AR,2158,1575,0.4146,0.5854,107141,72761,2020-06-01
NULL,25.75561798,NULL,Springdale,NULL,15621,0.608843537,NULL,7160,NULL,3,Career Academy of Hair Design,www.beautynwa.com,36.167605,-94.12947,20000,23600,www.beautynwa.com/npcalc/,2341700,1.299999952,2.24000001,8.609999657,88.47000122,0.7017,NULL,NULL,1,AR,295,211,0.0474,0.9526,107220,72764-7128,2020-06-01
NULL,26.57264957,NULL,Fort Smith,NULL,16317,0.505050505,NULL,6417,NULL,3,Academy of Salon and Spa,www.academysalonspa.com,35.38097,-94.41616,PrivacySuppressed,PrivacySuppressed,www.academysalonspa.com,1074100,1.840000033,3.400000095,5.300000191,85.98000336,0.75,NULL,NULL,1,AR,92,53,0,1,107293,72901,2020-06-01
NULL,24.96578947,4311,West Memphis,14384,NULL,0.594427245,NULL,PrivacySuppressed,NULL,2,Arkansas State University Mid-South,www.asumidsouth.edu,35.145736,-90.22285,22500,26700,www.asumidsouth.edu/NetPriceCalculator16/npcalc.htm,2348200,0.479999989,46.43000031,1.5,51.40000153,0.4279,1,NULL,1,AR,2029,657,0.3135,0.6865,107318,72301-3829,2020-06-01
NULL,23.82154341,5202,Blytheville,10480,NULL,0.589453861,NULL,PrivacySuppressed,NULL,2,Arkansas Northeastern College,www.anc.edu,35.898597,-89.921005,25700,30800,www.anc.edu/netprice/index.html,1286000,0.349999994,25.26000023,2.039999962,72.08999634,0.3541,1,NULL,1,AR,2066,881,0.3394,0.6606,107327,72316-1109,2020-06-01
NULL,27.90769231,NULL,North Little Rock,NULL,19444,0.56,NULL,PrivacySuppressed,NULL,3,New Tyler Barber College Inc,newtylerbarbercollege.edu,34.760085,-92.254171,15900,19200,https://www.newtylerbarbercollege.edu/prospective-students/net-price-calculator/,2284200,0.870000005,41.13000107,2.339999914,55.20000076,0.7681,NULL,NULL,1,AR,69,38,0.6579,0.3421,107442,72114-4973,2020-06-01
NULL,24.77272727,5246,Harrison,10089,NULL,0.537511871,NULL,9361,NULL,2,North Arkansas College,www.northark.edu,36.219909,-93.08844,25600,28900,www.northark.edu/NetPrice/npcalc.htm,1226100,0.300000012,0.99000001,2.660000086,95.69999695,0.5409,0.5726,NULL,1,AR,2311,1393,0.3812,0.6188,107460,72601-5508,2020-06-01
NULL,26.19491525,NULL,Springdale,8201,NULL,0.586387435,NULL,PrivacySuppressed,NULL,3,Northwest Technical Institute,www.nwti.edu,36.178032,-94.115346,29800,32500,www.nwtionline.com/NetPriceCalculator/npcalc.htm,2073700,1.190000057,1.480000019,8.140000343,89.33999634,0.6563,NULL,NULL,1,AR,288,237,0.5865,0.4135,107488,72764,2020-06-01
0.636,19.76295133,6418,Arkadelphia,37349,NULL,0.235489221,NULL,20665,NULL,1,Ouachita Baptist University,www.obu.edu,34.126093,-93.052471,41200,46000,www.obu.edu/finaid/,110200,2.369999886,12.77999973,7.630000114,78.98999786,0.2928,1,1193,3,AR,1656,1546,0.4489,0.5511,107512,71998-0001,2020-06-01
NULL,27.43769968,4781,Malvern,12338,NULL,0.5,NULL,10543,NULL,2,Arkansas State University Three Rivers,www.coto.edu,34.378745,-92.821416,27500,31000,www.coto.edu/sites/default/static/netpricecalc/npcalc.htm,997600,0.360000014,11.88000011,1.570000052,85.44000244,0.3145,0.3362,NULL,1,AR,1692,566,0.2686,0.7314,107521,72104-0816,2020-06-01
NULL,26.5,4627,Melbourne,12416,NULL,0.509219858,NULL,9550,NULL,2,Ozarka College,www.ozarka.edu,36.053031,-91.896355,23800,28100,www.ozarka.edu/finaid/npcalc.cfm,2087000,0.150000006,0.629999995,1.019999981,96.90000153,0.5405,0.4118,NULL,1,AR,1588,761,0.226,0.774,107549,72556-0010,2020-06-01
0.5232,20.13483146,6740,Clarksville,35136,NULL,0.346875,NULL,19500,NULL,1,University of the Ozarks,https://www.ozarks.edu,35.476278,-93.467221,33900,38600,https://admissions.ozarks.edu/secure/calc/default.aspx,109400,1.129999995,6.570000172,7.28000021,85.80000305,0.404,0.7647,NULL,3,AR,800,862,0.493,0.507,107558,72830,2020-06-01
0.7415,24.36411264,5033,Morrilton,10389,NULL,0.492526158,NULL,8250,NULL,2,University of Arkansas Community College-Morrilton,www.uaccm.edu,35.172136,-92.728507,27500,31600,www.uaccm.edu/Future_Student/calculator.html,524500,0.430000007,6.329999924,2.349999905,90.13999939,0.5279,1,NULL,1,AR,2513,1720,0.3651,0.6349,107585,72110,2020-06-01
NULL,21.86079183,6045,Little Rock,25290,NULL,0.430340557,NULL,26416,NULL,1,Philander Smith College,https://www.philander.edu,34.737131,-92.283015,24400,27300,https://www.philander.edu/netpricecalculator,110300,1.419999957,46.15999985,4.929999828,48.08000183,0.8126,1,NULL,3,AR,1049,1000,0.337,0.663,107600,72202-3799,2020-06-01
NULL,22.59364549,4883,Helena,10501,NULL,0.445945946,NULL,PrivacySuppressed,NULL,2,Phillips Community College of the University of Arkansas,www.pccua.edu,34.546155,-90.616884,22400,26200,hdatatelweb.pccua.edu/web/netcalc/netcalc.html,110400,0.360000014,44.65999985,1.460000038,53.47000122,0.349,0.6556,NULL,1,AR,2144,710,0.3056,0.6944,107619,72342-0785,2020-06-01
NULL,24.99534342,4801,Pine Bluff,12149,NULL,0.527740189,NULL,8427,NULL,2,Southeast Arkansas College,www.seark.edu,34.210309,-92.025936,26700,29700,www.seark.edu/financial-aid/net-price-calculator,570700,0.550000012,43.79999924,1.24000001,54.06000137,0.6403,0.5581,NULL,1,AR,1792,947,0.2904,0.7096,107637,71603,2020-06-01
NULL,25.25,NULL,El Dorado,NULL,11071,PrivacySuppressed,NULL,PrivacySuppressed,NULL,3,Professional Cosmetology Education Center,www.pcec.edu,33.216032,-92.664101,PrivacySuppressed,PrivacySuppressed,www.pcec.edu/wp-content/uploads/2019/10/index-PCEC.html,2202400,0.289999992,33.75,1.090000033,64.47000122,0.775,NULL,NULL,1,AR,40,30,0.0333,0.9667,107655,71730-4009,2020-06-01
NULL,26.09668273,4859,North Little Rock,16796,NULL,0.439144737,NULL,14750,NULL,2,University of Arkansas-Pulaski Technical College,uaptc.edu,34.782783,-92.299184,27700,30700,mediaserver.uaptc.edu/net-price-calculator/index.html,2075300,0.920000017,32.43000031,2.480000019,63.70999908,0.494,1,NULL,1,AR,8048,3705,0.3671,0.6329,107664,72118-3347,2020-06-01
NULL,24.32867884,4317,Hope,13574,NULL,0.550377834,NULL,PrivacySuppressed,NULL,2,University of Arknsas Hope-Texarkana,www.uaht.edu,33.641665,-93.596762,24400,28600,www.uaht.edu/about/tuition-and-fees/tuition-calculator/,573200,0.230000004,28.75,4.679999828,67.01000214,0.5911,0.4681,NULL,1,AR,2078,1542,0.3294,0.6706,107725,71801,2020-06-01
NULL,24.11386139,4615,Mena,11854,NULL,0.635327635,NULL,PrivacySuppressed,NULL,2,University of Arkansas Community College Rich Mountain,www.uarichmountain.edu,34.591449,-94.219799,20800,24100,www.uarichmountain.edu/financial-aid/net-price-calculator,2111100,0.479999989,0.340000004,3.779999971,93.87999725,0.3795,0.38,NULL,1,AR,1187,449,0.2918,0.7082,107743,71953,2020-06-01
NULL,23.47133758,NULL,Fayetteville,NULL,22767,0.482014389,NULL,9833,NULL,3,Paul Mitchell the School-Arkansas,https://paulmitchell.edu/arkansas/,36.126373,-94.153892,PrivacySuppressed,PrivacySuppressed,https://paulmitchell.edu/arkansas/programs/cosmetology,792100,1.269999981,1.870000005,6.269999981,89.58999634,0.5064,NULL,NULL,1,AR,156,95,0.0632,0.9368,107789,72703,2020-06-01
NULL,26.69811321,NULL,Searcy,NULL,24570,0.670454546,NULL,13833,NULL,3,Searcy Beauty College,searcybeautycollege.com/,35.239148,-91.735135,13400,17200,searcybeautycollege.com,2569600,0.270000011,7.010000229,1.5,90.55999756,0.7117,NULL,NULL,1,AR,111,75,0.0267,0.9733,107831,72143,2020-06-01
NULL,33.14017341,4218,N Little Rock,21618,NULL,0.557281553,NULL,28124,NULL,2,Shorter College,www.shortercollege.edu,34.75933,-92.261331,NULL,NULL,www.shortercollege.edu/net-price-calculator,110500,NULL,NULL,NULL,NULL,0.9827,1,NULL,2,AR,1099,569,0.5413,0.4587,107840,72114,2020-06-01
0.5639,20.94230769,5355,Walnut Ridge,28424,NULL,0.323529412,10,20000,17,1,Williams Baptist University,https://williamsbaptistuniversity.com/,36.125676,-90.940277,33100,36400,https://npc.collegeboard.org/app/wbcoll,110600,0.389999986,6.099999905,1.700000048,90.87000275,0.5011,0.9615,1034,3,AR,539,460,0.5717,0.4283,107877,72476,2020-06-01
NULL,26.3265857,4903,El Dorado,12743,NULL,0.539556962,NULL,10000,NULL,2,South Arkansas Community College,www.southark.edu,33.209446,-92.666087,29000,32700,https://www.southark.edu/admissions/support/net-price-calculator,2074600,0.360000014,32.06999969,1.769999981,65.55000305,0.5773,1,NULL,1,AR,2070,1143,0.238,0.762,107974,71731-7010,2020-06-01
0.6878,21.33203125,6861,Magnolia,22116,NULL,0.420921544,1601,19013,929,1,Southern Arkansas University Main Campus,https://www.saumag.edu,33.291618,-93.235922,35700,39000,https://www.saumag.edu/netprice/,110700,0.620000005,28.75,3.559999943,67.48000336,0.4915,0.6629,1105,3,AR,3866,3203,0.4511,0.5489,107983,71753,2020-06-01
NULL,24.7195122,4239,Camden,18368,NULL,0.524390244,NULL,5985,NULL,2,Southern Arkansas University Tech,www.sautech.edu,33.628367,-92.721629,26700,31200,www.sautech.edu/netPriceCalc/npcalc.htm,773800,0.270000011,34.47999954,1.460000038,63.36000061,0.402,0.5231,NULL,1,AR,1976,733,0.4993,0.5007,107992,71701-1906,2020-06-01
NULL,30.54545455,NULL,Little Rock,NULL,13152,0.636363636,NULL,9500,NULL,3,Velvatex College of Beauty Culture,www.velvatexcollege.com,34.735685,-92.289597,PrivacySuppressed,PrivacySuppressed,www.velvatexcollege.com,3214300,0.930000007,46.29999924,2.640000105,49.77000046,0.7333,NULL,NULL,1,AR,15,16,0,1,108065,72202-5452,2020-06-01
NULL,22.9306017,6921,Fort Smith,16434,NULL,0.484022156,25,16244,26,1,University of Arkansas-Fort Smith,uafs.edu/,35.384184,-94.373729,31000,35000,admissions.uafs.edu/sites/admissions.uafs.edu/files/Departments/Financial/documents/np_calc/Net%20Price%20Calculator.htm,111000,1.950000048,3.970000029,4.769999981,85.94000244,0.4338,0.6499,NULL,3,AR,7517,5235,0.418,0.582,108092,72913-3649,2020-06-01
NULL,25.72972973,8492,San Francisco,39735,NULL,0.408370159,4864,31365,3565,1,Academy of Art University,www.academyart.edu,37.787943,-122.400578,38600,47300,https://npc.collegeboard.org/student/app/academyart,753100,11.90999985,8.25,15.34000015,67.91000366,0.3623,0.2147,NULL,3,CA,9827,6898,0.439,0.561,108232,94105,2020-06-01
NULL,NULL,NULL,Oakland,NULL,NULL,NULL,158,PrivacySuppressed,103,1,Academy of Chinese Culture and Health Sciences,www.acchs.edu,37.805972,-122.269839,NULL,NULL,www.acchs.edu/npcalc.htm,3288300,PrivacySuppressed,PrivacySuppressed,PrivacySuppressed,PrivacySuppressed,NULL,NULL,NULL,3,CA,NULL,NULL,NULL,NULL,108269,94612,2020-06-01
NULL,32.28205128,NULL,Huntington Beach,NULL,28835,PrivacySuppressed,NULL,9500,NULL,3,The Academy of Radio and TV Broadcasting,WWW.ARBRADIO.COM,33.729535,-117.987762,31000,34200,arbradio.com/#section-new-career,2342400,7.659999847,11.01000023,38.47999954,55.34000015,0.8889,NULL,NULL,1,CA,36,26,0.6923,0.3077,108348,92647,2020-06-01
NULL,25.5470852,NULL,Alameda,NULL,20081,0.517241379,NULL,6329,NULL,3,Avalon School of Cosmetology-Alameda,avalon.edu/locations/alameda-ca/,37.764203,-122.243566,20000,23900,avalon.edu/financial-aid/net-price-calculator-2-2/,2258600,15.81999969,29.29999924,19.92000008,38.09000015,0.6697,NULL,NULL,1,CA,218,118,0.0508,0.9492,108649,94501,2020-06-01
NULL,25.93333333,8521,Alameda,13680,NULL,0.561310782,NULL,PrivacySuppressed,NULL,2,College of Alameda,alameda.peralta.edu/,37.781017,-122.279303,34200,40500,https://misweb.cccco.edu/npc/341/npcalc.htm,672000,21.37999916,22.75,18.20999908,40.02000046,0.1943,0.4078,NULL,1,CA,10615,4975,0.4287,0.5713,108667,94501,2020-06-01
NULL,23.22894641,8493,Santa Maria,10784,NULL,0.594700687,NULL,9500,NULL,2,Allan Hancock College,www.hancockcollege.edu/,34.943716,-120.421144,30400,35500,https://misweb.cccco.edu/npc/611/npcalc.htm,111100,4.039999962,3.589999914,41.40999985,67.05000305,0.2105,0.2768,NULL,2,CA,17070,9045,0.4561,0.5439,108807,93454-6399,2020-06-01
0.7892,20.65873016,8933,Los Angeles,50100,NULL,0.233983287,NULL,12000,NULL,2,American Academy of Dramatic Arts-Los Angeles,www.aada.edu,34.095378,-118.343701,32700,38200,https://www.aada.edu/admissions/net-price-calculator/,746501,5.539999962,8.369999886,17.79000092,73.30999756,0.275,0.1481,NULL,2,CA,310,263,0.3954,0.6046,108852,90028,2020-06-01
NULL,PrivacySuppressed,5493,Berkeley,NULL,NULL,PrivacySuppressed,70,PrivacySuppressed,51,1,American Baptist Seminary of the West,www.absw.edu,37.865252,-122.256149,NULL,NULL,www.absw.edu,112000,NULL,NULL,NULL,NULL,NULL,NULL,NULL,3,CA,NULL,NULL,NULL,NULL,108861,94704-3029,2020-06-01
NULL,PrivacySuppressed,8047,Los Angeles,NULL,NULL,PrivacySuppressed,379,PrivacySuppressed,339,1,American Film Institute Conservatory,www.AFI.com,34.10767,-118.310018,NULL,NULL,conservatory.afi.com/tuition-and-fees/,2222000,PrivacySuppressed,PrivacySuppressed,PrivacySuppressed,PrivacySuppressed,NULL,0.11,NULL,3,CA,NULL,NULL,NULL,NULL,108870,90027-1625,2020-06-01
NULL,25.15068493,NULL,West Covina,NULL,15291,0.636363636,NULL,6200,NULL,3,American Beauty College,www.americanbeautycollege.com,34.069367,-117.936959,PrivacySuppressed,PrivacySuppressed,www.americanbeautycollege.com,1307400,10.40999985,10.71000004,53.43999863,43.22999954,0.5938,NULL,NULL,1,CA,192,129,0.4729,0.5271,108977,91790,2020-06-01
NULL,25.55442015,5945,Los Angeles,NULL,23043,0.559902201,NULL,9500,NULL,2,American Career College-Los Angeles,americancareercollege.edu,34.079323,-118.292481,31800,35500,https://americancareercollege.aidcalc.cloud,2241800,12.09000015,13.89999962,49.77999878,40.15999985,0.6433,NULL,NULL,1,CA,2038,1284,0.1861,0.8139,109040,90004,2020-06-01
NULL,PrivacySuppressed,4665,San Francisco,49581,NULL,PrivacySuppressed,36,PrivacySuppressed,35,1,American Conservatory Theater,www.act-sf.org,37.787343,-122.40475,PrivacySuppressed,PrivacySuppressed,www.actaccess.org/netpricecalculator/npcalc.htm,2099200,7.650000095,12.59000015,13.09000015,70.51999664,0.0769,1,NULL,1,CA,84,0,0,0,109086,94108-5834,2020-06-01
NULL,26.97778675,8443,Sacramento,11961,NULL,0.514147803,NULL,16441,NULL,2,American River College,https://www.arc.losrios.edu/,38.65085,-121.349672,32000,38100,https://www.arc.losrios.edu/admissions/cost-of-attendance/net-price-calculator,123200,7.760000229,8.829999924,14.97999954,69.12999725,0.2148,0.3913,NULL,1,CA,46394,28573,0.5419,0.4581,109208,95841-4286,2020-06-01
NULL,24.98190709,8808,Lancaster,13084,NULL,0.561569981,NULL,11500,NULL,1,Antelope Valley College,www.avc.edu,34.676207,-118.186166,27100,34500,https://misweb.cccco.edu/npc/621/npcalc.htm,111300,3.440000057,13.81000042,29.54000092,61.40000153,0.4596,0.1971,NULL,2,CA,18532,12080,0.4156,0.5844,109350,93536-5426,2020-06-01
0.6765,22.8465704,7776,Pasadena,64097,NULL,0.242884251,268,31013,241,1,Art Center College of Design,www.artcenter.edu,34.169031,-118.185102,53600,62300,https://tcc.ruffalonl.com/Art-Center-College-of-Design/Freshman-Calculator,111600,16.45999908,5.199999809,26.65999985,60.47999954,0.3072,0.2643,NULL,3,CA,2716,1987,0.4529,0.5471,109651,91103,2020-06-01
NULL,30.54024256,NULL,Los Angeles,NULL,26526,0.597156398,NULL,9500,NULL,3,Associated Technical College-Los Angeles,www.atcla.edu,34.056102,-118.272364,23000,27900,https://atcla.edu/calculator2019/,902200,13.55000019,13.35999966,59.43000031,32.81000137,0.8737,NULL,NULL,1,CA,570,367,0.4469,0.5531,109721,90017-1604,2020-06-01
NULL,32.64197531,NULL,San Diego,NULL,26494,0.508108108,NULL,9500,NULL,3,Associated Technical College-San Diego,www.atcsd.edu,32.715375,-117.157988,19600,25300,www.atcsd.edu,2553500,11.35999966,11.03999996,40.04999924,50.41999817,0.7549,NULL,NULL,1,CA,253,98,0.7653,0.2347,109730,92101,2020-06-01
0.6851,26.05728789,9160,Azusa,51578,NULL,0.379825992,5343,24500,4438,1,Azusa Pacific University,www.apu.edu,34.130047,-117.888375,51100,55900,https://www.apu.edu/undergraduate-admissions/financialaid/calculator/,111700,8.489999771,4.340000153,27.78000069,68.41999817,0.326,0.4042,1147,3,CA,6239,5545,0.3459,0.6541,109785,91702-7000,2020-06-01
NULL,23.19697343,10776,Bakersfield,12467,NULL,0.630508475,NULL,13084,NULL,1,Bakersfield College,www.bakersfieldcollege.edu/,35.40911,-118.973753,29800,36000,https://misweb.cccco.edu/npc/521/npcalc.htm,111800,3.849999905,5.96999979,44.36999893,56.68999863,0.342,0.5395,NULL,2,CA,33600,19178,0.4465,0.5535,109819,93305-1299,2020-06-01
NULL,26.90927522,9621,Barstow,16152,NULL,0.531069827,NULL,PrivacySuppressed,NULL,2,Barstow Community College,www.barstow.edu,34.870285,-117.023412,29900,35000,https://misweb.cccco.edu/npc/911/npcalc.htm,111900,3.019999981,10.75,28.88999939,62.50999832,0.5193,0.2806,NULL,2,CA,4588,2721,0.3414,0.6586,109907,92311,2020-06-01
NULL,25.66984127,NULL,Chula Vista,NULL,28003,0.56147541,NULL,11634,NULL,2,Bellus Academy-Chula Vista,www.bellusacademy.edu,32.614773,-117.083738,18200,21100,https://www.bellusacademy.edu/wp-content/uploads/2019/10/NPC-Chula-Vista.html,705000,13.31999969,10.27999973,47.34999847,45.38000107,0.759,NULL,NULL,1,CA,307,202,0.3515,0.6485,109934,91911,2020-06-01
NULL,26.63541667,NULL,Anaheim,17255,NULL,0.493975904,160,19500,133,1,Bethesda University,www.buc.edu,33.842295,-117.941323,PrivacySuppressed,PrivacySuppressed,www.buc.edu,3266300,24.97999954,4.130000114,37.77999878,46.09999847,0.3097,NULL,NULL,3,CA,334,238,0.6765,0.3235,110060,92801,2020-06-01
0.7347,20.36529372,9348,La Mirada,53611,NULL,0.235507246,2382,24813,2099,1,Biola University,https://www.biola.edu,33.906203,-118.014374,44500,50700,https://www.biola.edu/undergrad/financial-aid/net-price-calculator#net-price,112200,8.619999886,4.289999962,24.81999969,70.06999969,0.3168,1,1170,3,CA,4203,4005,0.3683,0.6317,110097,90639-0001,2020-06-01
NULL,29.57575758,NULL,Anaheim,NULL,33678,0.632768362,NULL,9500,NULL,3,Brownson Technical School,https://brownson.edu,33.819032,-117.905774,48400,49600,https://brownson.edu/netprice/npcalc.php,2543400,12.84000015,3.549999952,40.43000031,57.75,0.759,NULL,NULL,1,CA,307,61,0.9836,0.0164,110194,92805,2020-06-01
NULL,33.25811209,4967,Tempe,23758,NULL,0.535202864,7,20972,7,1,Bryan University,bryanuniversity.edu,33.437779,-111.944197,31900,36100,bryanuniversity.edu/about/consumer-info/net-price-calculator/,716400,11.31999969,11.67000008,39.27999878,50.5,0.7041,0.1467,NULL,2,AZ,2144,1075,0.4009,0.5991,110219,85281,2020-06-01
NULL,23.83725366,8846,Oroville,11336,NULL,0.508591065,NULL,12788,NULL,2,Butte College,www.butte.edu,39.649782,-121.644831,31300,37600,https://misweb.cccco.edu/npc/111/npcalc.htm,807300,3.890000105,1.929999948,14.23999977,80.80999756,0.3987,0.2915,NULL,2,CA,14144,9942,0.4604,0.5396,110246,95965-8399,2020-06-01
NULL,34.16470588,8314,San Francisco,NULL,NULL,PrivacySuppressed,1598,18750,1391,1,California Institute of Integral Studies,www.ciis.edu,37.774924,-122.416102,PrivacySuppressed,PrivacySuppressed,https://my.ciis.edu/ICS/Financial_Aid/Forms_and_Resources.jnz?portlet=Budget_Calculator&_ga=2.122314440.273392424.1504792767-1278539770.1487619126,1215400,14.65999985,7.590000153,16.39999962,65.11000061,0.78,0.2906,NULL,3,CA,106,61,0.3934,0.6066,110316,94103,2020-06-01
NULL,23.97732604,8082,Aptos,14848,NULL,0.507571802,NULL,12463,NULL,2,Cabrillo College,www.cabrillo.edu,36.989448,-121.924797,33300,40600,misweb.cccco.edu/npc/411/npcalc.htm,112400,4.210000038,1.639999986,32.52000046,70.05999756,0.2117,0.3978,NULL,2,CA,17467,10164,0.4525,0.5475,110334,95003,2020-06-01
0.7955,24.09567021,9674,Riverside,44746,NULL,0.416079812,3537,27000,2631,1,California Baptist University,www.calbaptist.edu,33.929321,-117.425619,42600,47500,https://calbaptist.studentaidcalculator.com/welcome.aspx,112500,5.079999924,7.139999866,31.14999962,65.83000183,0.4602,0.3274,1103,3,CA,8518,7811,0.3775,0.6225,110361,92504-3297,2020-06-01
0.8818,21.54324324,9662,San Francisco,64030,NULL,0.244186047,477,27000,337,1,California College of the Arts,www.cca.edu,37.767485,-122.399451,37200,48000,www.cca.edu/admissions/financialaid/calculator,112700,10.72000027,7.96999979,15.56999969,69.11000061,0.2712,0.2121,NULL,3,CA,1694,1453,0.3772,0.6228,110370,94107-2247,2020-06-01
NULL,PrivacySuppressed,17286,San Francisco,NULL,NULL,PrivacySuppressed,1041,PrivacySuppressed,1002,1,University of California-Hastings College of Law,www.uchastings.edu,37.781137,-122.4157,114700,137100,www.uchastings.edu/fiscal-services/tuition-and-fees/,394700,14.97999954,6.650000095,17.51000023,64.73999786,NULL,0.925,NULL,3,CA,NULL,NULL,NULL,NULL,110398,94102-4978,2020-06-01
0.0662,19.34782609,19993,Pasadena,68901,NULL,PrivacySuppressed,1332,8700,1285,1,California Institute of Technology,www.caltech.edu,34.137349,-118.125878,85900,106300,www.finaid.caltech.edu/npc,113100,11.39000034,5.519999981,16.25,72.12000275,0.1415,0.9195,1566,3,CA,989,948,0.5464,0.4536,110404,91125,2020-06-01
0.7147,22.31310861,9974,Thousand Oaks,56491,NULL,0.353858785,1688,21500,1324,1,California Lutheran University,www.callutheran.edu/,34.224566,-118.878924,54200,60200,https://www.callutheran.edu/financial-aid/tuition-fees/net-price-calculator.html,113300,6.53000021,3.420000076,22.54999924,74.05999756,0.301,1,1163,3,CA,3286,3054,0.4332,0.5668,110413,91360-2787,2020-06-01
0.3017,20.14106655,10335,San Luis Obispo,27073,NULL,0.248062016,1278,19500,915,1,California Polytechnic State University-San Luis Obispo,calpoly.edu,35.299513,-120.65731100000001,66900,74300,financialaid.calpoly.edu/calculator/npcalc.htm,114300,8.31000042,3.380000114,20.63999939,73.41000366,0.1818,0.6835,1339,3,CA,22352,21047,0.5165,0.4835,110422,93407,2020-06-01
1,30.99367089,8689,San Diego,34892,NULL,0.319298246,3447,12500,2792,1,Alliant International University-San Diego,www.alliant.edu,32.897056,-117.094398,59500,65200,https://www.alliant.edu/net-price-calc/,1111700,10.01000023,8.470000267,23.20000076,65.22000122,0.0402,0.8321,NULL,1,CA,2078,289,0.5087,0.4913,110468,92131,2020-06-01
0.2302,23.17431193,9585,Bakersfield,16714,NULL,0.58172232,1628,15704,1448,1,California State University-Bakersfield,www.csub.edu,35.350005,-119.104711,47800,50100,https://www2.calstate.edu/attend/paying-for-college/Pages/csu-costs.aspx,799300,4.150000095,7.329999924,38.31999969,60.15999985,0.6272,0.5124,NULL,3,CA,10500,9142,0.3855,0.6145,110486,93311-1099,2020-06-01
0.8582,23.21042874,9475,Turlock,16442,NULL,0.599456686,1541,14248,1284,1,California State University-Stanislaus,https://www.csustan.edu,37.52577,-120.852511,45400,48500,https://www2.calstate.edu/attend/paying-for-college/Pages/csu-costs.aspx,115700,6.5,3.900000095,32.99000168,64.77999878,0.6171,0.5097,NULL,3,CA,10226,9272,0.3403,0.6597,110495,95382-0299,2020-06-01
0.5483,22.73337371,9779,San Bernardino,18522,NULL,0.596857816,2791,15375,2271,1,California State University-San Bernardino,www.csusb.edu,34.182622,-117.323801,44500,48800,https://www2.calstate.edu/attend/paying-for-college/Pages/csu-costs.aspx,114200,4.71999979,9.720000267,39.58000183,58.13000107,0.6364,0.4812,991,3,CA,19495,17704,0.3942,0.6058,110510,92407-2393,2020-06-01
0.5515,22.38213583,10587,Pomona,21302,NULL,0.492781664,2183,17792,1664,1,California State Polytechnic University-Pomona,www.cpp.edu,34.057912,-117.821476,54000,58000,https://www.cpp.edu/~financial-aid/net-price-calculator/npcalc.htm,114400,15.65999985,5.550000191,40.97999954,52.36000061,0.4881,0.4729,1143,3,CA,25910,24841,0.5346,0.4654,110529,91768,2020-06-01
0.6526,22.35678392,9723,Chico,23508,NULL,0.473401298,1331,16850,1095,1,California State University-Chico,www.csuchico.edu,39.729712,-121.844859,48100,55400,https://www2.calstate.edu/attend/paying-for-college/Pages/csu-costs.aspx,114600,5.610000134,2.720000029,16.84000015,77.51999664,0.4589,0.5577,1092,3,CA,18423,16317,0.4704,0.5296,110538,95929-0150,2020-06-01
0.6394,25.30506838,9752,Carson,14469,NULL,0.590501792,3446,14500,2833,1,California State University-Dominguez Hills,https://www.csudh.edu,33.864766,-118.255917,44700,48500,https://www2.calstate.edu/attend/paying-for-college/Pages/csu-costs.aspx,114100,8.930000305,21.18000031,45.47000122,38.25999832,0.6452,0.405,NULL,3,CA,14480,13871,0.3708,0.6292,110547,90747-0005,2020-06-01
0.5753,22.34042089,9393,Fresno,16915,NULL,0.53245174,3589,15000,3012,1,California State University-Fresno,www.fresnostate.edu/,36.811154,-119.744569,44700,48500,fresnostate.edu/studentaffairs/financialaid/netprice/index.html,114700,6.960000038,5.079999924,40.83000183,58.06000137,0.5954,0.5432,1019,3,CA,23662,21732,0.411,0.589,110556,93740,2020-06-01
0.4341,22.85596452,10201,Fullerton,17645,NULL,0.494455253,6537,15000,5420,1,California State University-Fullerton,www.fullerton.edu,33.881506,-117.885446,47200,51800,www.fullerton.edu/financialaid/calculator/,113700,13.78999996,4.269999981,37.38000107,57.77000046,0.4981,0.4861,1124,3,CA,40621,34637,0.4368,0.5632,110565,92831-3599,2020-06-01
0.716,24.61632176,10210,Hayward,21371,NULL,0.509297521,3812,15326,2792,1,California State University-East Bay,www.csueastbay.edu,37.657694,-122.054135,51700,58200,www.csueastbay.edu/financialaid/files/images/net-price-calculator/npcalc.htm,113800,19.29999924,12.84000015,22.28000069,50.09000015,0.4672,0.4603,NULL,3,CA,15801,12728,0.3917,0.6083,110574,94542,2020-06-01
0.3121,22.63120509,10192,Long Beach,18306,NULL,0.486271676,7080,15000,5776,1,California State University-Long Beach,www.csulb.edu,33.782818,-118.11204,48100,53000,https://www2.calstate.edu/attend/paying-for-college/Pages/csu-costs.aspx,113900,13.07999992,8.31000042,36.70000076,53.66999817,0.5256,0.4856,1146,3,CA,34141,31503,0.4339,0.5661,110583,90840-0115,2020-06-01
0.4152,23.04972376,9827,Los Angeles,14823,NULL,0.615339372,4281,13381,3813,1,California State University-Los Angeles,www.calstatela.edu,34.066927,-118.168965,46100,49900,https://www2.calstate.edu/attend/paying-for-college/Pages/csu-costs.aspx,114000,14.88000011,8.729999542,52.04999924,42.68999863,0.6871,0.4134,978,3,CA,25757,24163,0.4247,0.5753,110592,90032-8506,2020-06-01
0.5063,22.68120572,10090,Northridge,18870,NULL,0.538672809,6394,14488,5161,1,California State University-Northridge,https://www.csun.edu,34.240126,-118.529319,45400,49700,https://www2.calstate.edu/attend/paying-for-college/Pages/csu-costs.aspx,115300,9.460000038,7.889999866,36.79000092,57.36999893,0.5785,0.4546,1027,3,CA,38245,34911,0.4599,0.5401,110608,91330,2020-06-01
0.6386,23.1948718,9804,Sacramento,19807,NULL,0.490483319,3436,15572,3089,1,California State University-Sacramento,www.csus.edu,38.559415,-121.423549,48900,54200,https://www2.calstate.edu/attend/paying-for-college/Pages/csu-costs.aspx,115000,10.42000008,7.889999866,19.79999924,64.83999634,0.5403,0.4779,1030,3,CA,31737,28439,0.446,0.554,110617,95819-2694,2020-06-01
0.1484,21.50653739,17125,Berkeley,36739,NULL,0.345800525,11926,13750,11648,1,University of California-Berkeley,www.berkeley.edu,37.871918,-122.260463,64700,79000,https://financialaid.berkeley.edu/sites/default/files/docs/FinancialLiteracy/CalcBalance_LiveFields_final.pdf,131200,16.69000053,6.809999943,23.56999969,59.25999832,0.2676,0.6663,1448,3,CA,32309,30845,0.4739,0.5261,110635,94720,2020-06-01
0.4107,21.20280172,14603,Davis,35252,NULL,0.408311428,7586,13000,7449,1,University of California-Davis,ucdavis.edu,38.539667,-121.749567,58200,68100,myawards.ucdavis.edu/AidEstimator,131300,16.95999908,6.519999981,22.31999969,59.13000107,0.3822,0.866,1292,3,CA,32197,30698,0.3963,0.6037,110644,95616-8678,2020-06-01
0.2876,20.45639952,15447,Irvine,32985,NULL,0.439811172,6305,15893,6296,1,University of California-Irvine,www.uci.edu/,33.648434,-117.841248,58400,65800,www.ofas.uci.edu/content/Calculator.aspx,131400,17.73999977,4.369999886,28.70999908,58.40000153,0.4212,0.8146,1316,3,CA,30865,29722,0.4861,0.5139,110653,92697,2020-06-01
0.1404,21.08359271,18392,Los Angeles,33654,NULL,0.380891393,13432,15000,12960,1,University of California-Los Angeles,www.ucla.edu/,34.068892,-118.443901,60700,73200,https://dnn.uclanet.ucla.edu/fas102016/Prospective-Student/Net-Price-Calculator,131500,15.57999992,5.800000191,29.77000046,58.04000092,0.3382,0.6973,1423,3,CA,33160,31568,0.4217,0.5783,110662,90095-1405,2020-06-01
0.5057,20.26240301,13408,Riverside,32843,NULL,0.483469907,3367,19000,3341,1,University of California-Riverside,www.ucr.edu/,33.97246,-117.32741,49700,55300,vcsaweb.ucr.edu/FinAidManualCalculator/,131600,14.40999985,7.039999962,36.54999924,53.90000153,0.5386,0.8655,1229,3,CA,21540,20574,0.4599,0.5401,110671,92521,2020-06-01
0.3006,20.78065032,16373,La Jolla,31891,NULL,0.395708283,7601,16808,7602,1,University of California-San Diego,www.ucsd.edu,32.877749,-117.235866,59900,69600,fas.ucsd.edu/forms-and-resources/financial-aid-estimator/index.html,131700,16.87000084,4.639999866,26.29000092,60.15000153,0.3629,0.8483,1372,3,CA,30143,30279,0.5018,0.4982,110680,92093,2020-06-01
NULL,28.65217391,15176,San Francisco,NULL,NULL,PrivacySuppressed,3201,PrivacySuppressed,3114,1,University of California-San Francisco,ucsf.edu,37.763737,-122.458489,143700,156800,NULL,131900,20.29000092,6.090000153,17.38999939,60.18000031,NULL,0.5871,NULL,3,CA,NULL,NULL,NULL,NULL,110699,94143-0244,2020-06-01
0.322,20.17647978,15994,Santa Barbara,35987,NULL,0.424005811,3002,15306,2906,1,University of California-Santa Barbara,www.ucsb.edu,34.416297,-119.846426,55300,62400,finaid.ucsb.edu/net-price-calculator,132000,10.38000011,4.940000057,30.17000008,63.81999969,0.3707,0.8502,1360,3,CA,23559,23063,0.4559,0.5441,110705,93106,2020-06-01
0.4737,20.45500879,14426,Santa Cruz,35982,NULL,0.367497508,2058,19000,1908,1,University of California-Santa Cruz,www.ucsc.edu/,36.995584,-122.058801,46900,53800,www2.ucsc.edu/finaidcalc/,132100,13.02999973,5.079999924,22.87000084,64.81999969,0.3725,0.767,1311,3,CA,18534,17792,0.516,0.484,110714,95064-1011,2020-06-01
NULL,PrivacySuppressed,6194,Palo Alto,NULL,NULL,PrivacySuppressed,627,PrivacySuppressed,1210,1,Sofia University,www.sofia.edu,37.430325,-122.10866,NULL,NULL,https://bigfuture.collegeboard.org/pay-for-college/college-costs/college-costs-calculator,2267600,NULL,NULL,NULL,NULL,0.6364,0.5139,NULL,3,CA,11,4,0,1,110778,94303,2020-06-01
NULL,25.38461539,NULL,Modesto,NULL,17857,0.538461539,NULL,6131,NULL,3,California Beauty School,www.calbeautycollege.edu,37.645217,-120.99689,PrivacySuppressed,PrivacySuppressed,www.calbeautycollege.edu/net-price-calculator,2065700,4.21999979,2.650000095,29.69000053,70.25,0.4504,NULL,NULL,1,CA,131,85,0.0118,0.9882,110875,95354,2020-06-01
1,26.33333333,NULL,Fresno,19034,NULL,PrivacySuppressed,NULL,PrivacySuppressed,NULL,1,California Christian College,www.calchristiancollege.edu,36.749366,-119.711123,PrivacySuppressed,PrivacySuppressed,www.calchristiancollege.edu/financial-aid/net-price-calculator/,884400,7.590000153,6.639999866,31.18000031,61.75,0.6875,NULL,NULL,3,CA,20,13,0.8462,0.1538,110918,93727,2020-06-01
NULL,NULL,NULL,Santa Ana,NULL,NULL,NULL,NULL,NULL,NULL,1,California Coast University,https://www.calcoast.edu,33.753135,-117.86524,NULL,NULL,https://www.calcoast.edu/net-price-calculator.html,4127600,NULL,NULL,NULL,NULL,NULL,NULL,NULL,NULL,CA,NULL,0,0,0,110936,92701,2020-06-01
NULL,26.30111524,NULL,La Mesa,NULL,17403,0.538834952,NULL,6200,NULL,3,California Hair Design Academy,https://chdaschools.com,32.765221,-117.024261,17800,23700,https://chdaschools.com/consumer-information/net-price-calculator/,1186500,7.320000172,7.809999943,24.20000076,67.12999725,0.4324,NULL,NULL,1,CA,370,172,0.3372,0.6628,111054,91942-5055,2020-06-01
0.2297,21.19205298,8825,Valencia,69015,NULL,0.157342657,529,27000,496,1,California Institute of the Arts,www.calarts.edu,34.39327,-118.566837,37900,50600,calarts.edu/financial-aid/net-price-calculator,113200,7.869999886,7.239999771,21.11000061,70.26000214,0.2617,0.6065,NULL,3,CA,1098,1003,0.4526,0.5474,111081,91355-2397,2020-06-01
0.6652,21.15920398,9824,Vallejo,28082,NULL,0.199475066,43,25000,29,1,California State University Maritime Academy,https://www.csum.edu,38.069061,-122.231551,82900,87800,https://www2.calstate.edu/attend/paying-for-college/Pages/csu-costs.aspx,113400,11.14999962,5.420000076,16.37000084,69.19999695,0.2962,0.7391,NULL,3,CA,1110,1016,0.8337,0.1663,111188,94590-8181,2020-06-01
NULL,NULL,11506,San Diego,NULL,NULL,NULL,896,PrivacySuppressed,802,1,California Western School of Law,https://www.cwsl.edu,32.722192,-117.162416,78500,96600,https://www.cwsl.edu,1310300,6.829999924,4.78000021,19.44000053,75.25,NULL,0.3895,NULL,3,CA,NULL,NULL,NULL,NULL,111391,92101-3046,2020-06-01
NULL,25.74349882,10453,Redwood City,10446,NULL,0.57278481,NULL,13300,NULL,2,Canada College,canadacollege.edu,37.44877,-122.265398,31500,37900,https://misweb.cccco.edu/npc/371/npcalc.htm,697300,11.71000004,5.360000134,30.80999947,61.09000015,0.1122,0.4089,NULL,2,CA,10216,4867,0.369,0.631,111434,94061-1099,2020-06-01
NULL,23.74817017,10205,Santa Clarita,11340,NULL,0.514626527,NULL,9942,NULL,2,College of the Canyons,www.canyons.edu,34.403993,-118.568698,39400,45800,https://www.canyons.edu/studentservices/financialaid/about/netcalc.php,890300,6.300000191,5.420000076,30.81999969,68.23000336,0.1733,0.2983,NULL,2,CA,32720,18649,0.5526,0.4474,111461,91355-1899,2020-06-01
NULL,26.93625498,NULL,Garden Grove,NULL,20162,0.509259259,NULL,6333,NULL,3,Career Academy of Beauty,CAofB.com,33.781018,-118.031697,23200,29200,caofb.com,2125000,13.18000031,3.869999886,32.29999924,61.49000168,0.5412,NULL,NULL,1,CA,255,171,0.0058,0.9942,111513,92845,2020-06-01
0.913,28.55555556,6361,Van Nuys,NULL,28768,0.529147982,NULL,22666,NULL,2,Casa Loma College-Van Nuys,https://www.casalomacollege.edu,34.192829,-118.457781,49600,52400,https://casalomacollege.studentaidcalculator.com/survey.aspx,673100,9.81000042,16.32999992,42.65999985,44.79000092,0.5385,1,NULL,1,CA,338,175,0.3943,0.6057,111638,91405,2020-06-01
NULL,29.4522003,NULL,San Diego,NULL,22829,0.692538808,NULL,6126,NULL,3,CET-San Diego,https://www.cetweb.edu,32.711302,-117.105328,23800,27600,https://cetweb.edu/tuition,2332809,6.260000229,17.87999916,49.29999924,45.72999954,0.3488,NULL,NULL,1,CA,344,174,0.7874,0.2126,111708,92102,2020-06-01
NULL,29.4522003,NULL,San Jose,NULL,21155,0.692538808,NULL,6126,NULL,3,CET-San Jose,https://cetweb.edu,37.322723,-121.88698,23800,27600,https://cetweb.edu/tuition,2332800,6.260000229,17.87999916,49.29999924,45.72999954,0.4812,NULL,NULL,1,CA,426,248,0.5927,0.4073,111717,95110,2020-06-01
NULL,29.4522003,NULL,El Centro,NULL,20093,0.692538808,NULL,6126,NULL,3,CET-El Centro,https://cetweb.edu,32.790908,-115.549079,23800,27600,https://cetweb.edu/tuition,2332810,6.260000229,17.87999916,49.29999924,45.72999954,0.3864,NULL,NULL,1,CA,396,230,0.7565,0.2435,111726,92243,2020-06-01
NULL,29.4522003,NULL,Colton,NULL,20620,0.692538808,NULL,6126,NULL,3,CET-Colton,https://cetweb.edu,34.077381,-117.353488,23800,27600,https://cetweb.edu/tuition,2332814,6.260000229,17.87999916,49.29999924,45.72999954,0.5436,NULL,NULL,1,CA,287,154,0.9416,0.0584,111744,92324,2020-06-01
NULL,29.4522003,NULL,Watsonville,NULL,14864,0.692538808,NULL,6126,NULL,3,CET-Watsonville,https://www.cetweb.edu,36.931833,-121.767991,23800,27600,https://cetweb.edu/tuition,2332819,6.260000229,17.87999916,49.29999924,45.72999954,0.3333,NULL,NULL,1,CA,138,61,0.4754,0.5246,111762,95076,2020-06-01
NULL,29.4522003,NULL,Salinas,NULL,20544,0.692538808,NULL,6126,NULL,3,CET-Salinas,https://cetweb.edu,36.707333,-121.65236,23800,27600,https://cetweb.edu/tuition,2332813,6.260000229,17.87999916,49.29999924,45.72999954,0.3165,NULL,NULL,1,CA,218,162,0.1667,0.8333,111799,93906,2020-06-01
NULL,23.43049716,10471,Norwalk,8792,NULL,0.599349092,NULL,9500,NULL,2,Cerritos College,www.cerritos.edu,33.886874,-118.097337,31900,36600,https://misweb.cccco.edu/npc/811/npcalc.htm,116100,8.729999542,10.05000019,60.20000076,42.77000046,0.4244,0.3658,NULL,2,CA,28433,20368,0.4891,0.5109,111887,90650-6298,2020-06-01
NULL,28.15610218,13354,Ridgecrest,16699,NULL,0.512850467,NULL,PrivacySuppressed,NULL,2,Cerro Coso Community College,cerrocoso.edu,35.567525,-117.66767,28000,34600,https://misweb.cccco.edu/npc/522/npcalc.htm,1011100,2.75999999,3.880000114,12.64000034,81.23999786,0.1383,0.3611,NULL,2,CA,9291,4890,0.4683,0.5317,111896,93555-9571,2020-06-01
NULL,24.52548903,9891,Hayward,12068,NULL,0.555425904,NULL,11460,NULL,2,Chabot College,www.chabotcollege.edu,37.642458,-122.105636,34600,41300,https://misweb.cccco.edu/npc/482/npcalc.htm,116200,21.32999992,13.75,25.36000061,44.59000015,0.1923,0.3813,NULL,2,CA,19853,12621,0.4849,0.5151,111920,94545,2020-06-01
NULL,24.08009451,9515,Rancho Cucamonga,16400,NULL,0.557763401,NULL,PrivacySuppressed,NULL,2,Chaffey College,www.chaffey.edu,34.147663,-117.573932,31500,36700,www.chaffey.edu/finaid/Links.shtml,116300,5.179999828,10,47.09999847,52.77999878,0.2867,0.2362,NULL,2,CA,29808,19650,0.4101,0.5899,111939,91737-3002,2020-06-01
0.5356,19.90277023,11826,Orange,69018,NULL,0.17877412,2654,21250,2327,1,Chapman University,https://www.chapman.edu,33.79302,-117.852518,54500,56600,https://www.chapman.edu/students/tuition-and-aid/financial-aid/net-cost-calculator/index.aspx,116400,7.889999866,4.46999979,24.70999908,69.87000275,0.1917,1,1288,3,CA,7363,7026,0.3911,0.6089,111948,92866,2020-06-01
0.3727,28.51612903,8771,Los Angeles,31311,NULL,0.47706422,616,17990,427,1,Charles R Drew University of Medicine and Science,www.cdrewu.edu,33.925658,-118.242791,81900,82700,https://docs.cdrewu.edu/assets//admissions/PriceCalculator.html,1036500,10.40999985,19.13999939,43.27000046,40.83000183,0.4493,0.3178,982,2,CA,187,163,0.3374,0.6626,111966,90059,2020-06-01
0.6178,22.58955224,7215,Irvine,49474,NULL,0.283863369,3755,22224,2374,1,Concordia University-Irvine,www.cui.edu,33.653665,-117.812305,46400,50800,www.cui.edu/studentlife/financial-aid/undergraduate/index.aspx?id=21911,2070500,9.670000076,3.940000057,23.87000084,70.08000183,0.279,0.9384,1142,3,CA,2046,1784,0.38,0.62,112075,92612-3203,2020-06-01
0.6013,26.78321678,6748,Santee,45605,NULL,0.408376963,113,23000,75,1,San Diego Christian College,sdcc.edu,32.842404,-116.978112,36700,42500,tcc.noellevitz.com/(S(hbmattx4suq0v45cbos1csf5))/San Diego Christian College/Freshman-Students,1203100,6.349999905,5.059999943,22.89999962,72.33000183,0.5243,0.1118,1055,3,CA,752,448,0.5179,0.4821,112084,92071,2020-06-01
NULL,NULL,6872,Berkeley,NULL,NULL,NULL,107,PrivacySuppressed,87,1,Church Divinity School of the Pacific,www.cdsp.edu,37.876184,-122.261122,NULL,NULL,www.cdsp.edu,116500,NULL,NULL,NULL,NULL,NULL,0.4167,NULL,3,CA,NULL,NULL,NULL,NULL,112127,94709-1211,2020-06-01
NULL,23.41506482,9691,Glendora,11341,NULL,0.537568901,NULL,8166,NULL,2,Citrus College,https://www.citruscollege.edu,34.135487,-117.885266,30900,36100,https://misweb.cccco.edu/npc/821/npcalc.htm,116600,12.06999969,5.230000019,47.95000076,53.45999908,0.3112,0.3495,NULL,2,CA,18733,11745,0.4582,0.5418,112172,91741-1899,2020-06-01
NULL,24.90196078,NULL,Citrus Heights,NULL,16047,0.459770115,NULL,PrivacySuppressed,NULL,3,Citrus Heights Beauty College,chbeautycollege.com,38.712951,-121.289529,NULL,NULL,chbeautycollegenetpricecalc.com/,2178700,NULL,NULL,NULL,NULL,0.3933,NULL,NULL,1,CA,150,86,0.0233,0.9767,112181,95610-1410,2020-06-01
NULL,26.40844112,9737,San Francisco,10392,NULL,0.550295858,NULL,9171,NULL,2,City College of San Francisco,www.ccsf.edu,37.725953,-122.451155,35100,41800,https://misweb.cccco.edu/npc/361/npcalc.htm,450200,30.71999931,10.56000042,17.37999916,44.41999817,0.1293,0.4186,NULL,1,CA,38862,24429,0.4661,0.5339,112190,94112-1898,2020-06-01
NULL,32.82857143,13883,Claremont,NULL,NULL,PrivacySuppressed,2087,PrivacySuppressed,1882,1,Claremont Graduate University,www.cgu.edu,34.103585,-117.713703,67000,71400,www.cgu.edu/admissions/cost-aid/financial-calculator/,116900,7.329999924,6.789999962,24.29000092,69.45999908,NULL,0.8852,NULL,3,CA,NULL,NULL,NULL,NULL,112251,91711-6160,2020-06-01
0.0931,19.49765258,14628,Claremont,71745,NULL,PrivacySuppressed,7,14250,3,1,Claremont McKenna College,www.cmc.edu,34.102154,-117.711188,72900,93200,https://npc.collegeboard.org/student/app/claremontmckenna,117000,11.67000008,5.460000038,19.57999992,68.77999878,0.139,0.9243,1446,3,CA,1343,1318,0.522,0.478,112260,91711-6400,2020-06-01
NULL,25.73859316,NULL,Visalia,NULL,23353,0.670977012,NULL,7489,NULL,3,Milan Institute-Visalia,www.milaninstitute.edu,36.27164,-119.312151,24200,27100,milaninstitute.edu/npc/milan-institute/visalia-california/index.html,2497300,7.269999981,7.5,32.86999893,59.86999893,0.7665,NULL,NULL,1,CA,484,273,0.0916,0.9084,112288,93277,2020-06-01
NULL,29.57317073,NULL,Clovis,NULL,19543,0.603448276,NULL,PrivacySuppressed,NULL,3,Clovis Adult Education,clovisadult.cusd.com,36.834459,-119.690369,34500,36200,www.clovisadulteducation.com,2309500,8.380000114,5.349999905,39.50999832,56.63000107,0.1697,NULL,NULL,1,CA,819,752,0.1184,0.8816,112367,93611,2020-06-01
NULL,31.95759234,10579,Fountain Valley,16173,NULL,0.554902847,NULL,9500,NULL,2,Coastline Community College,www.coastline.edu,33.715634,-117.929143,35100,43100,https://misweb.cccco.edu/npc/831/npcalc.htm,2063500,17.96999931,4.760000229,29.20999908,56.93999863,0.1266,0.1818,NULL,2,CA,20123,9459,0.5797,0.4203,112385,92708-2597,2020-06-01
0.5787,21.33219178,7404,San Jose,35351,NULL,0.279069767,NULL,31000,4,1,Cogswell College,www.cogswell.edu,37.414049,-121.94087,49800,60400,https://cogswell.edu/admission/financial-aid/,117700,17.30999947,3.269999981,17.67000008,65.93000031,0.461,0.2472,NULL,3,CA,692,589,0.6944,0.3056,112394,95134,2020-06-01
NULL,24.09090909,NULL,Anaheim,NULL,21503,0.465517241,NULL,9500,NULL,3,Coba Academy,www.coba.edu,33.841141,-117.943108,19000,23500,https://coba.edu/NetPrice/npcalc.htm,3577300,12.97000027,2.470000029,35.70999908,61.83000183,0.6,NULL,NULL,1,CA,115,90,0.2,0.8,112455,92801,2020-06-01
NULL,NULL,10741,Pomona,NULL,NULL,NULL,3861,PrivacySuppressed,3833,1,Western University of Health Sciences,www.westernu.edu,34.058092,-117.747732,106100,108100,www.westernu.edu/financial-budgets,2482700,13.64999962,5.289999962,33.41999817,58.33000183,NULL,0.8323,NULL,3,CA,NULL,NULL,NULL,NULL,112525,91766-1854,2020-06-01
NULL,26.43215507,8902,Sonora,13314,NULL,0.534120735,NULL,PrivacySuppressed,NULL,2,Columbia College,www.gocolumbia.edu/,38.030367,-120.388385,27300,33600,https://misweb.cccco.edu/npc/591/npcalc.htm,770700,1.629999995,2.170000076,10.34000015,86.83999634,0.3014,0.4365,NULL,2,CA,3605,2180,0.4546,0.5454,112561,95370,2020-06-01
NULL,21.17567568,5833,Tarzana,40386,NULL,0.295336788,NULL,19968,NULL,1,Columbia College Hollywood,https://www.columbiacollege.edu,34.17972,-118.538793,31400,39500,https://columbiacollege.studentaidcalculator.com/survey.aspx,2110200,6.170000076,9.239999771,20.30999947,70.13999939,0.4204,0.0875,NULL,3,CA,631,540,0.5426,0.4574,112570,91356-1411,2020-06-01
NULL,23.45823559,8965,Compton,14999,NULL,0.565500289,NULL,5133,NULL,2,Compton College,www.compton.edu,33.878226,-118.209463,31800,36900,https://misweb.cccco.edu/npc/721/npcalc.htm,119701,4.599999905,30.65999985,53.88000107,25.70999908,0.254,0.3673,NULL,2,CA,12108,5605,0.3558,0.6442,112686,90221-5393,2020-06-01
NULL,26.13724435,9078,San Pablo,13262,NULL,0.557763061,NULL,PrivacySuppressed,NULL,2,Contra Costa College,https://www.contracosta.edu,37.969381,-122.337377,33200,38900,https://misweb.cccco.edu/npc/311/npcalc.htm,119000,15.63000011,25.23999977,25.11000061,39.08000183,0.2344,0.3322,NULL,2,CA,10505,5702,0.3895,0.6105,112826,94806-3195,2020-06-01
NULL,25.29694775,8376,Sacramento,11790,NULL,0.513391304,NULL,8196,NULL,2,Cosumnes River College,https://www.crc.losrios.edu,38.45295,-121.423108,29700,34900,https://www.crc.losrios.edu/students/netpricecalc,753600,16.57999992,13.42000008,18.68000031,52.47000122,0.2628,0.4295,NULL,2,CA,20320,13045,0.4406,0.5594,113096,95823-5799,2020-06-01
NULL,23.03933434,9425,Yucaipa,21636,NULL,0.568097015,NULL,PrivacySuppressed,NULL,2,Crafton Hills College,www.craftonhills.edu,34.039178,-117.101173,33000,39000,https://misweb.cccco.edu/npc/981/npcalc.htm,927200,4.570000172,6.199999809,28.05999947,69.16999817,0.1486,0.158,NULL,2,CA,8833,5661,0.4443,0.5557,113111,92339-1799,2020-06-01
NULL,25.20699589,8946,San Luis Obispo,15922,NULL,0.428571429,NULL,10500,NULL,2,Cuesta College,https://www.cuesta.edu,35.331276,-120.742235,35600,42100,https://misweb.cccco.edu/npc/641/npcalc.htm,119200,3.609999895,2.480000019,17.93000031,81.23000336,0.2063,0.345,NULL,2,CA,15212,7853,0.4675,0.5325,113193,93403-8106,2020-06-01
NULL,29.28817649,7339,El Cajon,10250,NULL,0.610113422,NULL,PrivacySuppressed,NULL,2,Cuyamaca College,www.cuyamaca.edu,32.744954,-116.943507,29000,33300,https://misweb.cccco.edu/npc/021/npcalc.htm,2111300,5.179999828,6.96999979,21.65999985,71.22000122,0.2837,0.2917,NULL,2,CA,13951,7412,0.4517,0.5483,113218,92019,2020-06-01
NULL,23.84943243,11603,Cypress,11828,NULL,0.535883831,NULL,9424,NULL,1,Cypress College,www.cypresscollege.edu,33.82833,-118.025143,35600,41100,www.cypresscollege.edu/NetPriceCalculator/npcalc.htm,119300,16.79999924,5.380000114,37.86999893,52.45999908,0.2766,0.3879,NULL,2,CA,21471,14068,0.434,0.566,113236,90630-5897,2020-06-01
NULL,22.93180723,9179,Cupertino,11267,NULL,0.520590043,NULL,9500,NULL,2,De Anza College,www.deanza.edu/,37.320788,-122.045558,41700,50200,https://misweb.cccco.edu/npc/421/npcalc.htm,448000,28.87999916,3.50999999,23.35000038,49.97999954,0.1754,0.3714,NULL,2,CA,30817,17325,0.5111,0.4889,113333,95014,2020-06-01
NULL,27.35714286,NULL,Palm Desert,NULL,17240,0.651933702,NULL,8235,NULL,3,International School of Beauty Inc,https://btyschool.com/,33.729555,-116.403928,PrivacySuppressed,PrivacySuppressed,btyschool.com/tution/,3964400,NULL,NULL,NULL,NULL,0.6047,NULL,NULL,1,CA,253,127,0.2362,0.7638,113449,92260-2740,2020-06-01
NULL,PrivacySuppressed,2228,Blue Lake,NULL,NULL,PrivacySuppressed,14,PrivacySuppressed,20,1,Dell'Arte International School of Physical Theatre,www.dellarte.com/school,40.880924,-123.988808,PrivacySuppressed,PrivacySuppressed,https://www.dellarte.com/school-of-physical-theatre/tuition/,3025600,3.700000048,12.05000019,15.19999981,72.20999908,0,NULL,NULL,1,CA,23,10,0.2,0.8,113537,95525-0816,2020-06-01
NULL,23.9755142,9826,Palm Desert,16693,NULL,0.621286321,NULL,PrivacySuppressed,NULL,2,College of the Desert,www.collegeofthedesert.edu,33.732108,-116.388271,30600,36700,https://misweb.cccco.edu/npc/931/npcalc.htm,118200,2.170000076,3.089999914,51.36000061,62.70999908,0.4039,0.2906,NULL,2,CA,14142,10418,0.44,0.56,113573,92260,2020-06-01
0.5882,26.63235294,5278,San Diego,41056,NULL,PrivacySuppressed,NULL,42258,NULL,1,Design Institute of San Diego,www.disd.edu,32.880926,-117.167374,36800,42300,https://disd.studentaidcalculator.com/survey.aspx,2298000,7.570000172,4.610000134,20.76000023,73.08000183,0.3968,NULL,NULL,3,CA,159,98,0.102,0.898,113582,92121,2020-06-01
NULL,24.93876405,9234,Pleasant Hill,11553,NULL,0.453183521,NULL,4769,NULL,2,Diablo Valley College,https://www.dvc.edu,37.968516,-122.073142,37600,47800,https://misweb.cccco.edu/npc/312/npcalc.htm,119100,11.51000023,8.300000191,17.29999924,66,0.1678,0.3381,NULL,2,CA,29855,18327,0.4905,0.5095,113634,94523,2020-06-01
0.8717,21.48295455,8662,San Rafael,63875,NULL,0.306122449,526,27000,424,1,Dominican University of California,https://www.dominican.edu,37.981279,-122.512051,55600,63600,https://www.dominican.edu/admissions/aid/net-price-calculator-npc,119600,12.89000034,6.199999809,18.92000008,65.73000336,0.2965,0.3285,1126,3,CA,1415,1264,0.2437,0.7563,113698,94901-2298,2020-06-01
NULL,NULL,3117,Berkeley,NULL,NULL,NULL,71,PrivacySuppressed,57,1,Dominican School of Philosophy & Theology,https://www.dspt.edu,37.881099,-122.264612,NULL,NULL,https://www.dspt.edu/tuition-and-fees,129600,NULL,NULL,NULL,NULL,NULL,0.75,NULL,3,CA,NULL,NULL,NULL,NULL,113704,94708-1816,2020-06-01
NULL,23.33130699,9499,Monterey Park,15837,NULL,0.685203189,NULL,7620,NULL,2,East Los Angeles College,www.elac.edu/,34.040531,-118.148785,31300,36100,https://misweb.cccco.edu/npc/748/npcalc.htm,2226000,14.21000004,4.829999924,72.41999817,36.25,0.2336,0.3327,NULL,1,CA,57381,30975,0.5206,0.4794,113856,91754-6099,2020-06-01
NULL,23.45823559,10926,Torrance,16682,NULL,0.565500289,NULL,5133,NULL,2,El Camino Community College District,www.elcamino.edu,33.885229,-118.329913,31800,36900,www.finaid.org/calculators/studentbudget.phtml,119700,9.069999695,26.65999985,44.63999939,32.38000107,0.2815,0.3562,NULL,2,CA,33616,21292,0.4835,0.5165,113980,90506,2020-06-01
NULL,24.77868853,NULL,Hollywood,NULL,29849,0.471238938,NULL,8393,NULL,3,Elegance International,ei.edu/,34.098445,-118.338111,19100,24300,https://www.ei.edu/net-price-calculator/npcalc.htm,2091200,10.64000034,11.14000034,41.77999878,49.83000183,0.6327,NULL,NULL,1,CA,501,256,0.0742,0.9258,114044,90028,2020-06-01
NULL,NULL,NULL,Santa Monica,NULL,NULL,NULL,283,PrivacySuppressed,189,1,Emperor's College of Traditional Oriental Medicine,www.emperors.edu,34.030438,-118.485119,NULL,NULL,NULL,2609000,NULL,NULL,NULL,NULL,NULL,NULL,NULL,3,CA,NULL,NULL,NULL,NULL,114114,90403,2020-06-01
NULL,27.30263158,4586,Santa Rosa,NULL,25842,0.532110092,107,14167,71,1,Empire College,www.empcol.edu,38.468052,-122.729337,33300,33700,https://empcol.edu/files/empire/GE2017/NetPriceCalculator/npcalc.htm,903200,3.420000076,1.710000038,18.86000061,79.26000214,0.5084,0.2727,NULL,1,CA,476,329,0.1489,0.8511,114123,95403-2126,2020-06-01
NULL,26.27067977,11971,San Jose,18625,NULL,0.637315271,NULL,10175,NULL,2,Evergreen Valley College,www.evc.edu,37.30167,-121.76561,36600,44100,https://misweb.cccco.edu/npc/471/npcalc.htm,1245200,32.13000107,4.039999962,36.52000046,37.29000092,0.2802,0.3184,NULL,2,CA,14665,7865,0.4516,0.5484,114266,95135-1598,2020-06-01
0.5193,21.5184953,2678,Los Angeles,49961,NULL,0.301587302,18,14042,6,1,FIDM-Fashion Institute of Design & Merchandising-Los Angeles,www.fidm.edu,34.044209,-118.25993,37200,42400,https://npc.collegeboard.org/student/app/fidm,1111200,10.59000015,6.440000057,24.68000031,65.45999908,0.2915,0.4021,NULL,2,CA,3029,2198,0.1397,0.8603,114354,90015-1421,2020-06-01
0.4615,21.5184953,2346,San Francisco,45546,NULL,0.301587302,NULL,14042,NULL,1,FIDM-Fashion Institute of Design & Merchandising-San Francisco,WWW.FIDM.EDU,37.786353,-122.406651,37200,42400,https://npc.collegeboard.org/student/app/fidm,1111202,10.59000015,6.440000057,24.68000031,65.45999908,0.3118,0.25,NULL,2,CA,328,218,0.1468,0.8532,114390,94108-5805,2020-06-01
0.6667,21.5184953,NULL,Irvine,45416,NULL,0.301587302,NULL,14042,NULL,2,FIDM-Fashion Institute of Design & Merchandising-Orange County,www.FIDM.edu,33.691963,-117.852254,37200,42400,https://npc.collegeboard.org/student/app/fidm,1111203,10.59000015,6.440000057,24.68000031,65.45999908,0.3803,NULL,NULL,2,CA,95,64,0.125,0.875,114415,92614-5610,2020-06-01
NULL,23.13062099,8177,Quincy,15404,NULL,0.484337349,NULL,9298,NULL,1,Feather River Community College District,www.frc.edu,39.953101,-120.973067,29100,34600,https://misweb.cccco.edu/npc/121/npcalc.htm,859700,4.039999962,2.640000105,10,82.72000122,0.1525,0.1969,NULL,2,CA,3765,1275,0.6102,0.3898,114433,95971-9124,2020-06-01
NULL,25.38190955,NULL,Sacramento,NULL,19467,0.471153846,NULL,6333,NULL,3,Federico Beauty Institute,federico.edu,38.64883,-121.497761,25900,32200,www.federico.edu/disclosures,725300,8.909999847,6.519999981,17.05999947,69.58999634,0.5248,NULL,NULL,1,CA,463,346,0.1792,0.8208,114460,95834,2020-06-01
NULL,NULL,6801,Santa Barbara,NULL,NULL,NULL,1365,PrivacySuppressed,989,1,Fielding Graduate University,www.fielding.edu,34.42941,-119.717161,NULL,NULL,www.fielding.edu/how-to-apply/tuition-financial-aid/,2096100,PrivacySuppressed,PrivacySuppressed,PrivacySuppressed,PrivacySuppressed,NULL,0.4345,NULL,3,CA,NULL,NULL,NULL,NULL,114549,93105-3538,2020-06-01
NULL,PrivacySuppressed,4348,Santa Cruz,NULL,NULL,PrivacySuppressed,415,PrivacySuppressed,324,1,Five Branches University,www.fivebranches.edu,36.964348,-121.998245,PrivacySuppressed,PrivacySuppressed,www.fivebranches.edu,3131300,8.319999695,3.480000019,13.60000038,75.70999908,NULL,0.0476,NULL,3,CA,NULL,NULL,NULL,NULL,114585,95062,2020-06-01
NULL,31.525,NULL,Redondo Beach,NULL,15628,PrivacySuppressed,NULL,PrivacySuppressed,NULL,3,Redondo Beach Beauty College,rbbeautycollege.com,33.873098,-118.372137,NULL,NULL,rbbeautycollege.com,720900,NULL,NULL,NULL,NULL,0.2783,NULL,NULL,1,CA,115,115,0.087,0.913,114637,90278-3111,2020-06-01
NULL,25.27622595,9294,Los Altos Hills,11415,NULL,0.498857578,NULL,10500,NULL,1,Foothill College,https://foothill.edu,37.361655,-122.127964,46500,58300,https://misweb.cccco.edu/npc/422/npcalc.htm,119900,20.20000076,4.829999924,20.30999947,59.38000107,0.0808,0.308,NULL,2,CA,30736,13228,0.5167,0.4833,114716,94022,2020-06-01
